{"gyms":{"65156959409a4edf92dc8f4b11b117b2.16":{"guid":"65156959409a4edf92dc8f4b11b117b2.16","lat":42.380085,"lng":-71.096892,"name":"Bike More Painted Box"},"b9bf51a2fca44432bbbdf130e4e52b97.16":{"guid":"b9bf51a2fca44432bbbdf130e4e52b97.16","lat":42.381295,"lng":-71.08688,"name":"Buddy's Truck Stop"},"ff7765abd26b47c3a012ddf250aa0bd2.16":{"guid":"ff7765abd26b47c3a012ddf250aa0bd2.16","lat":42.380539,"lng":-71.090105,"name":"Cotton Candy Colors"},"1090fe758fe14d78a49072921513620f.16":{"guid":"1090fe758fe14d78a49072921513620f.16","lat":42.382367,"lng":-71.098356,"name":"John Nunziato Field","isEx":true},"1043d6bf01db451ba5e8b44e6c237544.11":{"guid":"1043d6bf01db451ba5e8b44e6c237544.11","lat":42.379865,"lng":-71.095356,"name":"Prospect Hill Mural"},"6c2e5458e6f44196b06d343575c30075.16":{"guid":"6c2e5458e6f44196b06d343575c30075.16","lat":42.377216,"lng":-71.097228,"name":"The Empty Portico"},"6863c36c273848ac87452b047159a2a8.16":{"guid":"6863c36c273848ac87452b047159a2a8.16","lat":42.372153,"lng":-71.087981,"name":"Alfred E Vellucci Park"},"c35cee837f3d47a0b660e4a908cc756f.16":{"guid":"c35cee837f3d47a0b660e4a908cc756f.16","lat":42.380705,"lng":-71.097101,"name":"Union Square Donuts"},"5f75610a4ce6449da7794b07d3bcbf52.16":{"guid":"5f75610a4ce6449da7794b07d3bcbf52.16","lat":42.382133,"lng":-71.080438,"name":"Puritan Garage 1920"},"974501680c9e4b379c0f751d5dd33d57.16":{"guid":"974501680c9e4b379c0f751d5dd33d57.16","lat":42.374251,"lng":-71.08822,"name":"PFC Cosmo Uglietto Memorial"},"d5aa02ae0dd44eca9e7a8397f1ac316d.16":{"guid":"d5aa02ae0dd44eca9e7a8397f1ac316d.16","lat":42.36378,"lng":-71.092497,"name":"This is Where We Live Work Create Mural"},"67ed8dede82c4857bade7f8630fd7415.16":{"guid":"67ed8dede82c4857bade7f8630fd7415.16","lat":42.36332,"lng":-71.097124,"name":"Flapper Mermaid"},"bb8cf8954fcc4103ab0dd951a414bbe3.16":{"guid":"bb8cf8954fcc4103ab0dd951a414bbe3.16","lat":42.365027,"lng":-71.089644,"name":"Not Art"},"d664476f8d944bd6b7d7c362d2e98571.16":{"guid":"d664476f8d944bd6b7d7c362d2e98571.16","lat":42.363727,"lng":-71.087187,"name":"Meadhall"},"5875adcc003f4f24984e5b9ecf6a70e4.12":{"guid":"5875adcc003f4f24984e5b9ecf6a70e4.12","lat":42.366672,"lng":-71.091865,"name":"Statue of Dante Alighieri"},"d2fc3ec1a07b4093a329668c18bd2a1b.11":{"guid":"d2fc3ec1a07b4093a329668c18bd2a1b.11","lat":42.36751,"lng":-71.096644,"name":"Squirrel Brand Park and Cambridge Community Garden"},"feb8e81ef79447aab27fc506291f446c.16":{"guid":"feb8e81ef79447aab27fc506291f446c.16","lat":42.362274,"lng":-71.090065,"name":"Officer Sean Collier Memorial and Plaque","isEx":true},"239a26ace65943dca677425fed9667a4.16":{"guid":"239a26ace65943dca677425fed9667a4.16","lat":42.368223,"lng":-71.092763,"name":"John J. Souza Square Marker"},"c99c9e8d64024731b486226f895b3c31.16":{"guid":"c99c9e8d64024731b486226f895b3c31.16","lat":42.367772,"lng":-71.090004,"name":"Kendall Square Cinema"},"76cbfc9ffb8d4da794cae8f250e57cf3.11":{"guid":"76cbfc9ffb8d4da794cae8f250e57cf3.11","lat":42.360685,"lng":-71.090822,"name":"Cosmic Ray Chandeliers"},"8b8cef990c5940f399419537de1f430b.12":{"guid":"8b8cef990c5940f399419537de1f430b.12","lat":42.360748,"lng":-71.088686,"name":"Transparent Horizon"},"d38e2c1454c8400594f51f43ef5eeb1d.16":{"guid":"d38e2c1454c8400594f51f43ef5eeb1d.16","lat":42.373026,"lng":-71.095915,"name":"Cow Mascot"},"55248cb2468a4d889c2bcff5f001fd1e.16":{"guid":"55248cb2468a4d889c2bcff5f001fd1e.16","lat":42.381848,"lng":-71.081696,"name":"Paul Revere Capture Site"},"57be9777dee04f599f60303dfa342133.16":{"guid":"57be9777dee04f599f60303dfa342133.16","lat":42.373925,"lng":-71.082032,"name":"Sav-Mor Sign"},"569c4ca7e6e744f7bb7dbe567c833f9d.16":{"guid":"569c4ca7e6e744f7bb7dbe567c833f9d.16","lat":42.372529,"lng":-71.099508,"name":"The Big 186"},"00d38b00383e495d92dc13ea39cb0f88.16":{"guid":"00d38b00383e495d92dc13ea39cb0f88.16","lat":42.36724,"lng":-71.08593,"name":"Police Memorial"},"f70ff8447b85498684b5a507b7d17726.12":{"guid":"f70ff8447b85498684b5a507b7d17726.12","lat":42.370385,"lng":-71.084993,"name":"Cambridge Public Library - O'C"},"36d4688ca2ed41b4a114b28dca7f9c1f.16":{"guid":"36d4688ca2ed41b4a114b28dca7f9c1f.16","lat":42.370779,"lng":-71.085115,"name":"Sacred Heart Parish"},"e0769a9ef1334125a44e473606b6079c.16":{"guid":"e0769a9ef1334125a44e473606b6079c.16","lat":42.372741,"lng":-71.085085,"name":"Skating Rink"},"00e5d2437c5d40f7be48ea6f55febb19.12":{"guid":"00e5d2437c5d40f7be48ea6f55febb19.12","lat":42.372487,"lng":-71.079188,"name":"A Wall of Respect for Animals"},"5ce5814c39fc4e2881b8eeec4b84d638.16":{"guid":"5ce5814c39fc4e2881b8eeec4b84d638.16","lat":42.369948,"lng":-71.075439,"name":"Polygon Rope Gym","isEx":true},"5254b6276ee442589a0958d5902b383c.16":{"guid":"5254b6276ee442589a0958d5902b383c.16","lat":42.381343,"lng":-71.099747,"name":"A Moment in Time"},"82366259dfe7426fbf1f666f2b107f33.16":{"guid":"82366259dfe7426fbf1f666f2b107f33.16","lat":42.376676,"lng":-71.098387,"name":"Concord Square"},"a01f5c980007499280fdbe5569160a87.11":{"guid":"a01f5c980007499280fdbe5569160a87.11","lat":42.371307,"lng":-71.081337,"name":"St. Francis of Assisi"},"2172dde239984694b5ad919aeb13e76c.16":{"guid":"2172dde239984694b5ad919aeb13e76c.16","lat":42.385732,"lng":-71.087703,"name":"Cross Street Map Box"},"efa39078d16d47a1a6b3c9c965b677c3.16":{"guid":"efa39078d16d47a1a6b3c9c965b677c3.16","lat":42.380001,"lng":-71.082711,"name":"Somerville Dog Park"},"6bf91641f69e4978980bdd9d52b5ecd1.16":{"guid":"6bf91641f69e4978980bdd9d52b5ecd1.16","lat":42.384464,"lng":-71.076435,"name":"Middlesex Canal Marker","medal":"None"},"501aecff444f49b4adb67bda0e42e613.16":{"guid":"501aecff444f49b4adb67bda0e42e613.16","lat":42.377604,"lng":-71.090262,"name":"Where do they go when they sleep?"},"2b516255187d41888623a18878c4a802.16":{"guid":"2b516255187d41888623a18878c4a802.16","lat":42.383235,"lng":-71.097826,"name":"Community Growing Center"},"b3b70e27f2cc4e5c8080ea8eb7c2dae1.12":{"guid":"b3b70e27f2cc4e5c8080ea8eb7c2dae1.12","lat":42.3884,"lng":-71.096184,"name":"Knight in Green Patina Armour Relief"},"b8b71672f4154caca8e0c1ad3f9299ea.16":{"guid":"b8b71672f4154caca8e0c1ad3f9299ea.16","lat":42.38916,"lng":-71.105373,"name":"Medical Missionaries of Mary"},"ffea83b4d3254034a6f4de25aff0c9e4.16":{"guid":"ffea83b4d3254034a6f4de25aff0c9e4.16","lat":42.389294,"lng":-71.09717,"name":"Roadside Runners Mural"},"a22358695805409daa12044d2dfcf605.16":{"guid":"a22358695805409daa12044d2dfcf605.16","lat":42.383453,"lng":-71.102053,"name":"Sea Lion Steps"},"db18a22acc224dbb9db3d1ae67fbe437.16":{"guid":"db18a22acc224dbb9db3d1ae67fbe437.16","lat":42.387203,"lng":-71.10872,"name":"Statue of Mary "},"070fa5d5628f45e0b584ab9184a4da2c.16":{"guid":"070fa5d5628f45e0b584ab9184a4da2c.16","lat":42.388053,"lng":-71.097953,"name":"The Montrose"},"3afe6e4539e74b828d398bee4ed4193e.16":{"guid":"3afe6e4539e74b828d398bee4ed4193e.16","lat":42.385925,"lng":-71.095944,"name":"This is a Long Distance Call"},"b7e98be4d82a465ab3978b5016acbea5.16":{"guid":"b7e98be4d82a465ab3978b5016acbea5.16","lat":42.39157,"lng":-71.107072,"name":"Iglesia de Jesucristo Palabra Miel"},"68139e22dd57422bb162625ec95c1de0.16":{"guid":"68139e22dd57422bb162625ec95c1de0.16","lat":42.392126,"lng":-71.11252,"name":"Dr. Pat Square "},"8f6a78161d7c4c47ab4aac9bc8f25fad.16":{"guid":"8f6a78161d7c4c47ab4aac9bc8f25fad.16","lat":42.391533,"lng":-71.111093,"name":"Severe Cartoon Damage"},"802ac7e9a2474ecca87c0e4d9715b9e8.16":{"guid":"802ac7e9a2474ecca87c0e4d9715b9e8.16","lat":42.39472,"lng":-71.098834,"name":"Temple B'Nai Brith"},"71d990f73a06418f8008818e38ff83c0.16":{"guid":"71d990f73a06418f8008818e38ff83c0.16","lat":42.387924,"lng":-71.110233,"name":"Basketball Memorial Mural"},"f00df4b8db9b4687801c520d9ab63134.16":{"guid":"f00df4b8db9b4687801c520d9ab63134.16","lat":42.381654,"lng":-71.110332,"name":"Durell Pocket Park and Community Garden"},"bc8882d8adf04c7a9544691805ae048e.16":{"guid":"bc8882d8adf04c7a9544691805ae048e.16","lat":42.385513,"lng":-71.113145,"name":"Shepard Fairey Mural"},"d54338b079d84b7fb071ab2ef93262a9.16":{"guid":"d54338b079d84b7fb071ab2ef93262a9.16","lat":42.38547,"lng":-71.113351,"name":"Wilson Square Plaque"},"c354ec00ed87411896f033ca9ffafaba.16":{"guid":"c354ec00ed87411896f033ca9ffafaba.16","lat":42.385911,"lng":-71.09526,"name":"Memorial"},"40fa11e8289248ae865602cfd5f3a590.16":{"guid":"40fa11e8289248ae865602cfd5f3a590.16","lat":42.395513,"lng":-71.117083,"name":"Somerville Bunny Bike Mural"},"a50f03516a884d3189ce0a189d7ea7b6.16":{"guid":"a50f03516a884d3189ce0a189d7ea7b6.16","lat":42.395717,"lng":-71.120171,"name":"The Dreamaway"},"1f7af96cdabb475981022db54ff118c7.16":{"guid":"1f7af96cdabb475981022db54ff118c7.16","lat":42.39404,"lng":-71.095763,"name":"Langmaid Terrace"},"471784bf9e5843fcb5c2fb8514ec5e77.16":{"guid":"471784bf9e5843fcb5c2fb8514ec5e77.16","lat":42.382485,"lng":-71.10517,"name":"St. Anthony's of Somerville"},"e7608045108047deb36caa537a21ab10.16":{"guid":"e7608045108047deb36caa537a21ab10.16","lat":42.384404,"lng":-71.077098,"name":"Art Panel #1 At Sullivan T"},"c719f6613edc47f98b56ad3988b87d3d.16":{"guid":"c719f6613edc47f98b56ad3988b87d3d.16","lat":42.38876,"lng":-71.085735,"name":"World War Two Memorial"},"0a2980c8834f492bbee5c165d14c4cfc.16":{"guid":"0a2980c8834f492bbee5c165d14c4cfc.16","lat":42.390985,"lng":-71.088938,"name":"Poolside Mural"},"9be631910a714dd3b345552a434a082d.16":{"guid":"9be631910a714dd3b345552a434a082d.16","lat":42.390626,"lng":-71.088708,"name":"Route of Middlesex Canal"},"5bf60164940443af8e23708328df3281.16":{"guid":"5bf60164940443af8e23708328df3281.16","lat":42.381809,"lng":-71.106879,"name":"Celebrate Somerville"},"e59e1f27e2ed464894d082f8aceb7b7e.16":{"guid":"e59e1f27e2ed464894d082f8aceb7b7e.16","lat":42.389317,"lng":-71.0851,"name":"Chuckie Harris Park"},"160d5d6cae194baf9906c507a5afb9e6.16":{"guid":"160d5d6cae194baf9906c507a5afb9e6.16","lat":42.386909,"lng":-71.078565,"name":"East Somerville Underpass Mural"},"bab98172aa50457981271e15eb76509f.11":{"guid":"bab98172aa50457981271e15eb76509f.11","lat":42.399902,"lng":-71.118063,"name":"Museum of the Modern Renaissance"},"211e001ff23748f9afc32a96bab84237.16":{"guid":"211e001ff23748f9afc32a96bab84237.16","lat":42.399604,"lng":-71.111562,"name":"Kelly's Diner"},"e9b6e37aecc04afb8d4fc08360b4cbd9.16":{"guid":"e9b6e37aecc04afb8d4fc08360b4cbd9.16","lat":42.398815,"lng":-71.10934,"name":"Disabled American Veterans #27"},"58223957db6c467e947c210d93aa4360.16":{"guid":"58223957db6c467e947c210d93aa4360.16","lat":42.397524,"lng":-71.113711,"name":"Keane Brothers' Square"},"68a1b712855e4c70af4e67f424151a33.16":{"guid":"68a1b712855e4c70af4e67f424151a33.16","lat":42.396035,"lng":-71.083666,"name":"Assembly Square Mural"},"b17bf6da9d0c4405910a550de3b22ae1.16":{"guid":"b17bf6da9d0c4405910a550de3b22ae1.16","lat":42.397672,"lng":-71.091688,"name":"Mystic Mural"},"402084b43efd4441a0c6f1130dbb25fc.16":{"guid":"402084b43efd4441a0c6f1130dbb25fc.16","lat":42.396741,"lng":-71.090462,"name":"Mystic River Wall"},"d7ffe00aec8640a68768d303e3e90653.16":{"guid":"d7ffe00aec8640a68768d303e3e90653.16","lat":42.395695,"lng":-71.079363,"name":"Traffic Sign Art"},"de72ec6384cd4f81a66c275bbfa906ef.16":{"guid":"de72ec6384cd4f81a66c275bbfa906ef.16","lat":42.396035,"lng":-71.079366,"name":"Incomplete Bridge"},"cd4a118e72f94162a9a9d1f5151bedf2.16":{"guid":"cd4a118e72f94162a9a9d1f5151bedf2.16","lat":42.395654,"lng":-71.081173,"name":"Legal Sea Foods Mural"},"dbb6bdb4eacf4f8baa13528a32c5f508.16":{"guid":"dbb6bdb4eacf4f8baa13528a32c5f508.16","lat":42.397037,"lng":-71.095129,"name":"Marchi Memorial Plaque"},"d04be4bb368e41c1baa036b897dc70ba.16":{"guid":"d04be4bb368e41c1baa036b897dc70ba.16","lat":42.398098,"lng":-71.107198,"name":"World War 2 Memorial"},"2833bead58d24c919175fe6ddfba638a.11":{"guid":"2833bead58d24c919175fe6ddfba638a.11","lat":42.397675,"lng":-71.10591,"name":"Richard J. Trum"},"7b25a489b4694432a51cd40e8a43eeef.16":{"guid":"7b25a489b4694432a51cd40e8a43eeef.16","lat":42.395373,"lng":-71.102737,"name":"Sgt. Henry O. Hansen Memorial"},"d420b7ecbd1b46a7a1909355e48632b5.16":{"guid":"d420b7ecbd1b46a7a1909355e48632b5.16","lat":42.402087,"lng":-71.106649,"name":"Tufts Park Entrance"},"ebc85c9329ef43db9a90c574ba731097.16":{"guid":"ebc85c9329ef43db9a90c574ba731097.16","lat":42.39483,"lng":-71.097258,"name":"Hands on Traffic Control"},"4a85d30ce5f94f57b2d55a31969803ad.16":{"guid":"4a85d30ce5f94f57b2d55a31969803ad.16","lat":42.388296,"lng":-71.103447,"name":"Sparrows on Electrical Box"},"2aea7849c4fb4c99b63f6e6b229598a2.16":{"guid":"2aea7849c4fb4c99b63f6e6b229598a2.16","lat":42.386142,"lng":-71.119526,"name":"Porter Square Mural "},"4e46512d19654322b4ffb6459cd1db0a.16":{"guid":"4e46512d19654322b4ffb6459cd1db0a.16","lat":42.390646,"lng":-71.121217,"name":"St. James Episcopal Church"},"69224afda6f342bea5102f21267cbc20.16":{"guid":"69224afda6f342bea5102f21267cbc20.16","lat":42.384451,"lng":-71.121826,"name":"Cooper Frost Austin House"},"a246bc230202428bb270b54af6ea890a.16":{"guid":"a246bc230202428bb270b54af6ea890a.16","lat":42.383805,"lng":-71.120707,"name":"Pooh House North"},"c72b3c824b6e4cb8a5d23c1e31dd0f3c.11":{"guid":"c72b3c824b6e4cb8a5d23c1e31dd0f3c.11","lat":42.38665,"lng":-71.118862,"name":"Lesley University Lunder Art Center"},"96316b8c24674e258f4c0f50de8bd15e.16":{"guid":"96316b8c24674e258f4c0f50de8bd15e.16","lat":42.391302,"lng":-71.122787,"name":"Carriage Making Historical Marker"},"e2d6b2cbe9ec41ebaebd58b291313931.16":{"guid":"e2d6b2cbe9ec41ebaebd58b291313931.16","lat":42.391748,"lng":-71.083267,"name":"Assembly Square Mural"},"0eb96d9f3da646b89e3537fe55f1a3ba.16":{"guid":"0eb96d9f3da646b89e3537fe55f1a3ba.16","lat":42.395015,"lng":-71.079563,"name":"Legoland Giraffe"},"789f155702064112a4e780410232eb24.16":{"guid":"789f155702064112a4e780410232eb24.16","lat":42.393326,"lng":-71.077332,"name":"Assembly T Station"},"e3c2141daf564438b40129ad600753f2.16":{"guid":"e3c2141daf564438b40129ad600753f2.16","lat":42.392671,"lng":-71.080863,"name":"Assembly Row"},"a794253c55de424a9429c6006fd964ac.16":{"guid":"a794253c55de424a9429c6006fd964ac.16","lat":42.393377,"lng":-71.086564,"name":"Frank Oliveto Jr. Memorial Field"},"7e2e5cb6c750445eb64d4d2b146dc3b1.16":{"guid":"7e2e5cb6c750445eb64d4d2b146dc3b1.16","lat":42.389079,"lng":-71.119936,"name":"Christopher's"},"a7f7b98e44644c1a9470468b72520b27.11":{"guid":"a7f7b98e44644c1a9470468b72520b27.11","lat":42.390845,"lng":-71.10175,"name":"Vernon Street Studio"},"4c0bb025347f4606bf0fb5aceba29c50.16":{"guid":"4c0bb025347f4606bf0fb5aceba29c50.16","lat":42.397365,"lng":-71.124877,"name":"Alewife Linear Park"},"236d66a4bdd242faa7528ca21ea837ee.12":{"guid":"236d66a4bdd242faa7528ca21ea837ee.12","lat":42.395861,"lng":-71.122974,"name":"West Somerville US Post Office"},"442ddc91467347b8a95b7cb27bf5f9c3.16":{"guid":"442ddc91467347b8a95b7cb27bf5f9c3.16","lat":42.398,"lng":-71.0905,"name":"Blessing of the Bay Boathouse"},"6611a0cf0c284aa8b44cf5019e601234.16":{"guid":"6611a0cf0c284aa8b44cf5019e601234.16","lat":42.387945,"lng":-71.083827,"name":"Veteran's Memorial"},"3d13f0ff858c44fe8940471b9b55c8ee.11":{"guid":"3d13f0ff858c44fe8940471b9b55c8ee.11","lat":42.387224,"lng":-71.098289,"name":"Somerville City Hall"},"ac2ba3ba594c4630b77db9bb352b2cfc.16":{"guid":"ac2ba3ba594c4630b77db9bb352b2cfc.16","lat":42.387165,"lng":-71.119001,"name":"Lesley University"},"47393519f9684f58a31cad4dc43644d5.16":{"guid":"47393519f9684f58a31cad4dc43644d5.16","lat":42.38775,"lng":-71.100675,"name":"Assembleia De Deus Boas Novas"},"2c5d9fd9da654250b870238df98ed02d.11":{"guid":"2c5d9fd9da654250b870238df98ed02d.11","lat":42.397463,"lng":-71.120072,"name":"Plaque of Largest Tree  in Somerville "},"e12c29063228432c876805f85ccfa54b.16":{"guid":"e12c29063228432c876805f85ccfa54b.16","lat":42.379591,"lng":-71.091878,"name":"James Miller Historical Marker"},"17923fa5826d44128e7767ed199bf5ac.12":{"guid":"17923fa5826d44128e7767ed199bf5ac.12","lat":42.370402,"lng":-71.081802,"name":"Putnam School"},"323cd266040e4413980170f0bd60d54e.16":{"guid":"323cd266040e4413980170f0bd60d54e.16","lat":42.367035,"lng":-71.069098,"name":"Charles River Basin"},"8403519ce3694163a4fd01742f483495.16":{"guid":"8403519ce3694163a4fd01742f483495.16","lat":42.369034,"lng":-71.073056,"name":"Boston Strong Marathon Art"},"b530d84e86db425691feb5aae6cf2a21.16":{"guid":"b530d84e86db425691feb5aae6cf2a21.16","lat":42.368618,"lng":-71.074773,"name":"Column of Faces","isEx":true},"607201e0d76840faac50bad78f589cb9.16":{"guid":"607201e0d76840faac50bad78f589cb9.16","lat":42.36693,"lng":-71.074969,"name":"Giant Cheese Grater"},"7f8d6b81d6b04933a0fd0a2afdb42033.16":{"guid":"7f8d6b81d6b04933a0fd0a2afdb42033.16","lat":42.369152,"lng":-71.076421,"name":"Vellucci Fountain at Cambridgeside Galleria","isEx":true},"7bf510509a5e4a63a4da97bf8b61265c.11":{"guid":"7bf510509a5e4a63a4da97bf8b61265c.11","lat":42.369757,"lng":-71.070898,"name":"Berlin Wall Boston"},"4d16473e99ff4820acdadd1181cb2fd2.16":{"guid":"4d16473e99ff4820acdadd1181cb2fd2.16","lat":42.369427,"lng":-71.071583,"name":"North Point Park","isEx":true},"b6b2c18a902b4ebdaf02c435d84fccaa.16":{"guid":"b6b2c18a902b4ebdaf02c435d84fccaa.16","lat":42.369604,"lng":-71.071398,"name":"East Coast Greenway Trailmarker","isEx":true},"2f4782ea645f43c8ab9427cdcb43808d.16":{"guid":"2f4782ea645f43c8ab9427cdcb43808d.16","lat":42.368366,"lng":-71.086036,"name":"Jimmy Johnson Street Hockey Court","isEx":true},"254018bb5acd4b81b47c4a2fe821643d.16":{"guid":"254018bb5acd4b81b47c4a2fe821643d.16","lat":42.368177,"lng":-71.065675,"name":"Bridge Plaque"},"6488150ac54c443d87cd53d453fb1309.16":{"guid":"6488150ac54c443d87cd53d453fb1309.16","lat":42.366112,"lng":-71.066956,"name":"Leverett/Brighton Historic Street Markers"},"e17518fc64db41d085fa7ebbd68c2a01.16":{"guid":"e17518fc64db41d085fa7ebbd68c2a01.16","lat":42.364287,"lng":-71.078516,"name":"Athena"},"966100c7303b4083a2955c8275c7d838.16":{"guid":"966100c7303b4083a2955c8275c7d838.16","lat":42.360799,"lng":-71.082968,"name":"Sloan School Spring Sculpture"},"0cc2e5fa09594725acf777a05867e7bf.12":{"guid":"0cc2e5fa09594725acf777a05867e7bf.12","lat":42.361656,"lng":-71.082959,"name":"Chains at Sloan Executive Cent"},"12c9673d4fbd450c95a763e45f848482.16":{"guid":"12c9673d4fbd450c95a763e45f848482.16","lat":42.361929,"lng":-71.082785,"name":"Stepping Stones To Heaven"},"1d673319beb54d7cb054461c82659b83.16":{"guid":"1d673319beb54d7cb054461c82659b83.16","lat":42.364428,"lng":-71.08337,"name":"Barismo 295"},"e0313c953feb4e949ee9cd9e82f84f81.16":{"guid":"e0313c953feb4e949ee9cd9e82f84f81.16","lat":42.363357,"lng":-71.066536,"name":"Shriners Entrance"},"ce97cf6bab94423db30e22ba69f3520d.12":{"guid":"ce97cf6bab94423db30e22ba69f3520d.12","lat":42.361356,"lng":-71.075894,"name":"Longfellow Bridge"}},"pokestops":{"b9d94d2b82db4eae8d595fdae1fbb00a.16":{"guid":"b9d94d2b82db4eae8d595fdae1fbb00a.16","lat":42.379754,"lng":-71.095021,"name":"Micro Museum"},"b680f9dfb62a4022819766f651d43c8b.16":{"guid":"b680f9dfb62a4022819766f651d43c8b.16","lat":42.380289,"lng":-71.094638,"name":"Stoner Place Park"},"66299aed50604e6b9d903ae3cb474c2e.16":{"guid":"66299aed50604e6b9d903ae3cb474c2e.16","lat":42.379481,"lng":-71.096496,"name":"St. Joseph's Statue of Virgin Mary"},"c2376df3d9be4cb39e271be3f04d13ab.16":{"guid":"c2376df3d9be4cb39e271be3f04d13ab.16","lat":42.381559,"lng":-71.100141,"name":"'Radio' Mural"},"3ee90b088c0541e98c4450a6a8c129d7.16":{"guid":"3ee90b088c0541e98c4450a6a8c129d7.16","lat":42.381574,"lng":-71.098422,"name":"1874 Somerville Police Station"},"16c3c34d855c4ba3bdb2f7ebf8204d50.16":{"guid":"16c3c34d855c4ba3bdb2f7ebf8204d50.16","lat":42.381703,"lng":-71.100799,"name":"Boston Japanese Christian Church"},"afbfcbd8d7d548e3956d2386113c5135.16":{"guid":"afbfcbd8d7d548e3956d2386113c5135.16","lat":42.379345,"lng":-71.0979,"name":"Catholic Charities"},"cfe440e10ce744adab0d0e4744c68218.16":{"guid":"cfe440e10ce744adab0d0e4744c68218.16","lat":42.376936,"lng":-71.09612,"name":"Concord Avenue Community Space "},"531171002a764fa599395d9072083c34.16":{"guid":"531171002a764fa599395d9072083c34.16","lat":42.377393,"lng":-71.088512,"name":"Art Farm"},"a36003eb7cb444cd84902b98242d03df.16":{"guid":"a36003eb7cb444cd84902b98242d03df.16","lat":42.380215,"lng":-71.102609,"name":"Dog Droid Mural"},"76bcfd43874d4e44b9a0f9d7f6a7a331.16":{"guid":"76bcfd43874d4e44b9a0f9d7f6a7a331.16","lat":42.38159,"lng":-71.085362,"name":"Grace of God Int'l Church"},"c6ffca49fede427aad40e26c10cfcd41.16":{"guid":"c6ffca49fede427aad40e26c10cfcd41.16","lat":42.37851,"lng":-71.090425,"name":"Iglesia de Dios Pentacostal M.I. Arca de Refugio"},"1b20d5dc3a374a17a27801fe195f0bab.16":{"guid":"1b20d5dc3a374a17a27801fe195f0bab.16","lat":42.379589,"lng":-71.093115,"name":"James P. Davidian Square"},"7fce4bd7fbe0420589f6e0ae66021a55.16":{"guid":"7fce4bd7fbe0420589f6e0ae66021a55.16","lat":42.378399,"lng":-71.086381,"name":"Joy Street Studios"},"4b32c0c2d87145dd844070ed3e2587a9.16":{"guid":"4b32c0c2d87145dd844070ed3e2587a9.16","lat":42.383054,"lng":-71.08936,"name":"Pvt. Columbus Valentino Sq."},"0dd1aca7c5c14a7a8420ccf28e11d22b.16":{"guid":"0dd1aca7c5c14a7a8420ccf28e11d22b.16","lat":42.380925,"lng":-71.084121,"name":"Gazebo @ Cobble Hill Apt."},"2fc55ec5b6584bc38e396374be4ffbe3.16":{"guid":"2fc55ec5b6584bc38e396374be4ffbe3.16","lat":42.380817,"lng":-71.098266,"name":"P.A.'s Lounge"},"ec5abc83db1642ea8072dd7dac660ddc.16":{"guid":"ec5abc83db1642ea8072dd7dac660ddc.16","lat":42.379197,"lng":-71.094647,"name":"Painted Post"},"f452f876928f44efa1872238b3b174a3.16":{"guid":"f452f876928f44efa1872238b3b174a3.16","lat":42.380911,"lng":-71.096989,"name":"Prospect Hill Congregational Church"},"1ca3b86ddff74409b6c50ecf46c991c8.16":{"guid":"1ca3b86ddff74409b6c50ecf46c991c8.16","lat":42.38118,"lng":-71.092897,"name":"Prospect Hill Park"},"70501be1f1cb41df97d47ff47319b1a5.16":{"guid":"70501be1f1cb41df97d47ff47319b1a5.16","lat":42.377825,"lng":-71.096032,"name":"Raven Bridge Mural"},"fd91c01857684a7b88c87ce57101a85c.16":{"guid":"fd91c01857684a7b88c87ce57101a85c.16","lat":42.380939,"lng":-71.097896,"name":"Remnant Courtyard Mural"},"f35c9c4b857c46098eb63b6a4639486b.16":{"guid":"f35c9c4b857c46098eb63b6a4639486b.16","lat":42.380972,"lng":-71.09264,"name":"Senator Corbett & Senator McKenna Park"},"ef3d2e076be8448ab868fd6bcadda10a.16":{"guid":"ef3d2e076be8448ab868fd6bcadda10a.16","lat":42.379775,"lng":-71.096556,"name":"Site of Union Army Recruiting "},"7fc09d9d47d34927b24025f0a5f07b6c.16":{"guid":"7fc09d9d47d34927b24025f0a5f07b6c.16","lat":42.378148,"lng":-71.091299,"name":"Somerville American Legion"},"a83e87eebf714df5a0529d1d6be274aa.16":{"guid":"a83e87eebf714df5a0529d1d6be274aa.16","lat":42.379869,"lng":-71.091841,"name":"Two Masons"},"f9cbca083ac9440382b5f9467d9990e1.16":{"guid":"f9cbca083ac9440382b5f9467d9990e1.16","lat":42.379262,"lng":-71.095142,"name":"Urban Axes Mural"},"3d947d83be584f3d87b2fbcf0d6ecd52.16":{"guid":"3d947d83be584f3d87b2fbcf0d6ecd52.16","lat":42.381856,"lng":-71.083291,"name":"United Divers Inc. Mural"},"3c3f26f3d610419c8e968a880b5d40e8.16":{"guid":"3c3f26f3d610419c8e968a880b5d40e8.16","lat":42.378611,"lng":-71.096192,"name":"UT COGNOSCANT TE"},"716b92dd7bd241799dd60aad0c19c611.16":{"guid":"716b92dd7bd241799dd60aad0c19c611.16","lat":42.37251,"lng":-71.09195,"name":"Mario De Pierro Square "},"fa132f48505a46c484409c7c20d5e9de.11":{"guid":"fa132f48505a46c484409c7c20d5e9de.11","lat":42.371529,"lng":-71.0887,"name":"San Antonio Church"},"af32f365c8b34462ac69b2e86a9195f6.16":{"guid":"af32f365c8b34462ac69b2e86a9195f6.16","lat":42.38189,"lng":-71.097859,"name":"The Old Community Center "},"2445121965834f6c8944e86d509f7180.16":{"guid":"2445121965834f6c8944e86d509f7180.16","lat":42.38175,"lng":-71.096737,"name":"Walnut Street Park"},"02adfd33979f45fab659409f50e3482c.16":{"guid":"02adfd33979f45fab659409f50e3482c.16","lat":42.382006,"lng":-71.093756,"name":"Prospect Hill Park Sign"},"c9469f22b61a4f808126b4dfa8f27719.16":{"guid":"c9469f22b61a4f808126b4dfa8f27719.16","lat":42.386811,"lng":-71.098861,"name":"Celebration of Electronics"},"63508967897548039d5eb8f5105a426e.16":{"guid":"63508967897548039d5eb8f5105a426e.16","lat":42.385594,"lng":-71.09427,"name":"Read!"},"7d2b4cc8fd5040dda824ee1e4018b971.16":{"guid":"7d2b4cc8fd5040dda824ee1e4018b971.16","lat":42.384666,"lng":-71.092701,"name":"Painted Signal Box"},"ba747d687a0b42c49b772842d74bd1b6.16":{"guid":"ba747d687a0b42c49b772842d74bd1b6.16","lat":42.38687,"lng":-71.098383,"name":"PFC George Dilboy"},"e3e23d405fbb4276b3c617a212e9c5b0.16":{"guid":"e3e23d405fbb4276b3c617a212e9c5b0.16","lat":42.378611,"lng":-71.089633,"name":"Florentine Gardens Building"},"ba9b06cd0c6f48679ab195dce802a591.16":{"guid":"ba9b06cd0c6f48679ab195dce802a591.16","lat":42.373516,"lng":-71.088002,"name":"Gaeta Square, Our Sister City"},"10cabb2cc49f4fb7a76dd7d9a22d8c39.16":{"guid":"10cabb2cc49f4fb7a76dd7d9a22d8c39.16","lat":42.373128,"lng":-71.087964,"name":"Warren Baking Co Historic Marker"},"2c0c2341040148a1880a4c0560fd0afe.16":{"guid":"2c0c2341040148a1880a4c0560fd0afe.16","lat":42.372086,"lng":-71.087449,"name":"Tree Bird Mosaics"},"37b10939ef6149999e4b6e992b0a2b7b.16":{"guid":"37b10939ef6149999e4b6e992b0a2b7b.16","lat":42.371965,"lng":-71.086546,"name":"Live Poultry Fresh Killed"},"a4eafcb947c94be0abf721728ea9c8b2.16":{"guid":"a4eafcb947c94be0abf721728ea9c8b2.16","lat":42.371845,"lng":-71.085602,"name":"Drink in Hand Mural"},"3fe3f0f0806a472ba846df0d57ffabb1.16":{"guid":"3fe3f0f0806a472ba846df0d57ffabb1.16","lat":42.37207,"lng":-71.088597,"name":"Sal & Marie DiDomenico Square"},"23b580ce8f5b450da5e41a084d0c207a.16":{"guid":"23b580ce8f5b450da5e41a084d0c207a.16","lat":42.372308,"lng":-71.089242,"name":"Dilando Memorial Way"},"d27723ed082d41198f4561d7a241fa86.16":{"guid":"d27723ed082d41198f4561d7a241fa86.16","lat":42.372257,"lng":-71.089958,"name":"Lawrence DeGuglielmo Square"},"14a5531dc7ff47ab816e968793c56f9d.16":{"guid":"14a5531dc7ff47ab816e968793c56f9d.16","lat":42.372364,"lng":-71.091208,"name":"Sunflower Securement"},"e13105f375604903a96ff730b61875c1.16":{"guid":"e13105f375604903a96ff730b61875c1.16","lat":42.37301,"lng":-71.089505,"name":"Gannett/Warren Pals Park"},"446550506f5043dfa36bb648ff97e216.16":{"guid":"446550506f5043dfa36bb648ff97e216.16","lat":42.3734,"lng":-71.090396,"name":"Walter F Barker Square"},"8b0dc505ebd444b8a55b2c73b06730d3.16":{"guid":"8b0dc505ebd444b8a55b2c73b06730d3.16","lat":42.382413,"lng":-71.085891,"name":"Palmer Ave Community Garden"},"0356c629c740431a9234c27b6fe7bc2e.16":{"guid":"0356c629c740431a9234c27b6fe7bc2e.16","lat":42.380133,"lng":-71.081212,"name":"Innerbelt Statue"},"c834fdd2255e4f8ea98a1be4fdb89357.16":{"guid":"c834fdd2255e4f8ea98a1be4fdb89357.16","lat":42.363525,"lng":-71.091974,"name":"Abstract Trees"},"890e8b38b0004f3aacbbd8ace01e03f2.16":{"guid":"890e8b38b0004f3aacbbd8ace01e03f2.16","lat":42.363035,"lng":-71.092463,"name":"Area Four at Technology Square"},"7409e4622e464fd6bf60a90e3d342147.16":{"guid":"7409e4622e464fd6bf60a90e3d342147.16","lat":42.365629,"lng":-71.092213,"name":"The USTrust Building"},"da7ac3f910df40458d8dda664219ecb0.16":{"guid":"da7ac3f910df40458d8dda664219ecb0.16","lat":42.364312,"lng":-71.092798,"name":"Curl Sculpture"},"801d9d564a314b8ea48d4ac7b85ea6c1.16":{"guid":"801d9d564a314b8ea48d4ac7b85ea6c1.16","lat":42.363035,"lng":-71.091611,"name":"Catalyst"},"6d677f45b722434e891bb6b6149e919b.16":{"guid":"6d677f45b722434e891bb6b6149e919b.16","lat":42.365998,"lng":-71.092859,"name":"Garment District Building"},"42d3ea4e58aa47d5b2b7951b9be61bf6.12":{"guid":"42d3ea4e58aa47d5b2b7951b9be61bf6.12","lat":42.366123,"lng":-71.091693,"name":"The Area 4 Story Mural in Camb"},"506681e53d314ab69096e7b2c403aaef.16":{"guid":"506681e53d314ab69096e7b2c403aaef.16","lat":42.36609,"lng":-71.091152,"name":"Color Changing  Cambridge Map"},"b3b8aefcf03a4c4a8194b8c16e53c9c8.16":{"guid":"b3b8aefcf03a4c4a8194b8c16e53c9c8.16","lat":42.365249,"lng":-71.092464,"name":"House With Stars"},"39d693b65c6f4775bde4a2594acf67a9.16":{"guid":"39d693b65c6f4775bde4a2594acf67a9.16","lat":42.362854,"lng":-71.093428,"name":"Fake Building Exterior"},"67a61e5f15a741149ee4826c560ea0de.16":{"guid":"67a61e5f15a741149ee4826c560ea0de.16","lat":42.362898,"lng":-71.09393,"name":"Porchetta"},"e2dc1917dd064b8f987b50919e950f54.16":{"guid":"e2dc1917dd064b8f987b50919e950f54.16","lat":42.366752,"lng":-71.092996,"name":"Cog"},"a20ddd538b094c9da9495c83e1614aab.16":{"guid":"a20ddd538b094c9da9495c83e1614aab.16","lat":42.367449,"lng":-71.093032,"name":"Joaquim Square"},"38a60f2b6e3746f695826a27c96ee906.16":{"guid":"38a60f2b6e3746f695826a27c96ee906.16","lat":42.366287,"lng":-71.090392,"name":"The Friendly Toast"},"37bff949c6f74ea688a0e5f0eb01a21a.16":{"guid":"37bff949c6f74ea688a0e5f0eb01a21a.16","lat":42.368459,"lng":-71.090641,"name":"John F. Clinton Square"},"1db811b3cd4f4095b21b896d006e5911.16":{"guid":"1db811b3cd4f4095b21b896d006e5911.16","lat":42.375532,"lng":-71.085013,"name":"Brick Bottom Artist Association"},"7839642c3bda42bc9f9c12c347f6a2ea.16":{"guid":"7839642c3bda42bc9f9c12c347f6a2ea.16","lat":42.376004,"lng":-71.09611,"name":"Creative Ironworks"},"6ebf247c5a7145ec8a1126ce95d64e80.16":{"guid":"6ebf247c5a7145ec8a1126ce95d64e80.16","lat":42.378341,"lng":-71.094706,"name":"Crossfit Mural"},"6b3eb86c01204495b2ad098d31ab5d18.16":{"guid":"6b3eb86c01204495b2ad098d31ab5d18.16","lat":42.376324,"lng":-71.095347,"name":"James Miller Mural"},"b838ffb6f029487281c1782c28d98441.16":{"guid":"b838ffb6f029487281c1782c28d98441.16","lat":42.381596,"lng":-71.097957,"name":"Painted Camo Signal Box"},"9181df62949c4a4488c3763ccfcbf50c.11":{"guid":"9181df62949c4a4488c3763ccfcbf50c.11","lat":42.381719,"lng":-71.093408,"name":"Prospect Hill Monument"},"3d4e7ef918c642fb89a55ffb229264f1.16":{"guid":"3d4e7ef918c642fb89a55ffb229264f1.16","lat":42.372975,"lng":-71.094301,"name":"Edward L. Zimmerman Square"},"eb789ba254e64d818e354de52ba0d86b.16":{"guid":"eb789ba254e64d818e354de52ba0d86b.16","lat":42.372516,"lng":-71.084558,"name":"Gold Star Mother's Park Gore Street Entrance"},"5591eaa3c2d34c318e5bd48c123070e1.16":{"guid":"5591eaa3c2d34c318e5bd48c123070e1.16","lat":42.374893,"lng":-71.092582,"name":"Grow Somerville "},"b79ca5808d784895a352d9677016ea4c.16":{"guid":"b79ca5808d784895a352d9677016ea4c.16","lat":42.372691,"lng":-71.094527,"name":"Ornate Brick Wall"},"611bf5d7fccc4b7f8f1780c5777a58c2.16":{"guid":"611bf5d7fccc4b7f8f1780c5777a58c2.16","lat":42.374124,"lng":-71.097528,"name":"The Grapes are Ripe Mosaic"},"b21843c1a0eb4bc48c7b77f448ab38d0.16":{"guid":"b21843c1a0eb4bc48c7b77f448ab38d0.16","lat":42.369736,"lng":-71.095753,"name":"Barnes House"},"63757f592dcb4a33b48d21357c4af32e.16":{"guid":"63757f592dcb4a33b48d21357c4af32e.16","lat":42.369116,"lng":-71.095091,"name":"Big Hand Art Gallery"},"50cdf53ecdde474490e0644cc6df7da9.16":{"guid":"50cdf53ecdde474490e0644cc6df7da9.16","lat":42.366558,"lng":-71.091302,"name":"CBC Mural"},"b47d6513109146cfa537219bfdf8b540.16":{"guid":"b47d6513109146cfa537219bfdf8b540.16","lat":42.370308,"lng":-71.089383,"name":"Dennis J. Arruda Square"},"e94d000e3786470da31dfb2a307a9950.16":{"guid":"e94d000e3786470da31dfb2a307a9950.16","lat":42.3677,"lng":-71.091078,"name":"Hungry Mother"},"eea59af9ee074189856ad4b15b3f9fbe.16":{"guid":"eea59af9ee074189856ad4b15b3f9fbe.16","lat":42.369429,"lng":-71.090077,"name":"Na Sa De Fatima"},"cfa8d580aea04613b0298ae894feb4d4.16":{"guid":"cfa8d580aea04613b0298ae894feb4d4.16","lat":42.365909,"lng":-71.094766,"name":"Seating for the Extreme Height Enabled"},"2e7a66fbb284444fb342d3c48ecb0705.16":{"guid":"2e7a66fbb284444fb342d3c48ecb0705.16","lat":42.368867,"lng":-71.090411,"name":"Manuel Sousa Square"},"9b7499914dd545569f987b83bf04b2bd.16":{"guid":"9b7499914dd545569f987b83bf04b2bd.16","lat":42.369627,"lng":-71.089956,"name":"Amadeu Cruz da Quelha Square"},"b25f78a63af54ff99ebc7df36353e97d.16":{"guid":"b25f78a63af54ff99ebc7df36353e97d.16","lat":42.373387,"lng":-71.083808,"name":"Joseph “Lefty” Pini Baseball Field"},"e887fe4939c24e14b643df0ee5959236.16":{"guid":"e887fe4939c24e14b643df0ee5959236.16","lat":42.379188,"lng":-71.102216,"name":"Blankadmin Mural"},"fcc6de61ed1142e28a44bc790df01c27.16":{"guid":"fcc6de61ed1142e28a44bc790df01c27.16","lat":42.379039,"lng":-71.103559,"name":"Perry Park"},"9404021aefe14cf994510c7777f07a0a.16":{"guid":"9404021aefe14cf994510c7777f07a0a.16","lat":42.379679,"lng":-71.093614,"name":"Somerville Post Office"},"19018d7945fe4c418dcb9c08057e0950.16":{"guid":"19018d7945fe4c418dcb9c08057e0950.16","lat":42.379437,"lng":-71.096761,"name":"St Joseph's Church"},"ddc98c103e1d43d1b45116975f816013.11":{"guid":"ddc98c103e1d43d1b45116975f816013.11","lat":42.379705,"lng":-71.098099,"name":"Koosh and Bubbles Mural"},"97dc6249457f403aaa69d3b40c902fd5.16":{"guid":"97dc6249457f403aaa69d3b40c902fd5.16","lat":42.376532,"lng":-71.095536,"name":"Union glass co"},"35239fe7757b4f2fbcdeaea41a336dee.16":{"guid":"35239fe7757b4f2fbcdeaea41a336dee.16","lat":42.371782,"lng":-71.085169,"name":"Mural of Groove"},"489f6e1b85a44690bbced19955797b6b.16":{"guid":"489f6e1b85a44690bbced19955797b6b.16","lat":42.373605,"lng":-71.087028,"name":"Iron Globe"},"a4333ba3ac634fb09898e3aa1b8913d6.16":{"guid":"a4333ba3ac634fb09898e3aa1b8913d6.16","lat":42.372138,"lng":-71.082172,"name":"Cresto Terrace Gardens"},"738a94758edc4176ad88be509b5ef27a.16":{"guid":"738a94758edc4176ad88be509b5ef27a.16","lat":42.37191,"lng":-71.081402,"name":"John W. Crowley Square"},"fa0c1e06dd0945d3b26d58a0e1d20858.16":{"guid":"fa0c1e06dd0945d3b26d58a0e1d20858.16","lat":42.370888,"lng":-71.079552,"name":"History of Cambridge Slabs at the Registry of Deeds"},"6b4a0f67eaf24c0c96323b36490fcd18.16":{"guid":"6b4a0f67eaf24c0c96323b36490fcd18.16","lat":42.37457,"lng":-71.091574,"name":"Somerville South Street Farm"},"b16b57eec5eb4b599b2f1bad037ecacf.16":{"guid":"b16b57eec5eb4b599b2f1bad037ecacf.16","lat":42.374887,"lng":-71.091725,"name":"Arrow Paper Fire Memorial "},"090757b2fc5640f2aa3e1b7a35496802.16":{"guid":"090757b2fc5640f2aa3e1b7a35496802.16","lat":42.373721,"lng":-71.091775,"name":"East Roosevelt Tower"},"6649b372e3934035934acb473c78114e.16":{"guid":"6649b372e3934035934acb473c78114e.16","lat":42.368599,"lng":-71.087613,"name":"Cosmo & Dominic Camelio Square"},"ad4b75c56201451d88219701ce515a6f.16":{"guid":"ad4b75c56201451d88219701ce515a6f.16","lat":42.369791,"lng":-71.087338,"name":"Joseph Silveira Square"},"5e2bbf9fc97c4080a08511e27d318495.16":{"guid":"5e2bbf9fc97c4080a08511e27d318495.16","lat":42.373271,"lng":-71.082807,"name":"Gold Star Mothers Park"},"e5ef21edacbd48e3a4bd3ca79f1560b7.16":{"guid":"e5ef21edacbd48e3a4bd3ca79f1560b7.16","lat":42.373324,"lng":-71.082267,"name":"Luke Agnetta Basketball Court"},"d737a9b242d44a7d8041de0201431858.16":{"guid":"d737a9b242d44a7d8041de0201431858.16","lat":42.372648,"lng":-71.081045,"name":"Leo J. Mochi Sr. Square"},"4d34de2c30284023aace3a511f02d190.16":{"guid":"4d34de2c30284023aace3a511f02d190.16","lat":42.372564,"lng":-71.080053,"name":"Charles F. Conlan Square"},"70ab1b66e1af4530b26c314f6a730df8.16":{"guid":"70ab1b66e1af4530b26c314f6a730df8.16","lat":42.372477,"lng":-71.083345,"name":"Gore Street Park Monument"},"1c9deb459dc7474aa8e61db372e3ebab.16":{"guid":"1c9deb459dc7474aa8e61db372e3ebab.16","lat":42.371535,"lng":-71.083065,"name":"Benjamin Lebicz Square"},"0d442bd07bd847888ceea85456f37bb8.16":{"guid":"0d442bd07bd847888ceea85456f37bb8.16","lat":42.372106,"lng":-71.083109,"name":"Anthony Paolillo Square"},"b182ff33975542f69985601353a6af9a.16":{"guid":"b182ff33975542f69985601353a6af9a.16","lat":42.371825,"lng":-71.08004,"name":"Lechmere Point Corporation Houses"},"11da99362afc417dbe0db3be50bc1e0b.16":{"guid":"11da99362afc417dbe0db3be50bc1e0b.16","lat":42.373134,"lng":-71.084744,"name":"Skating Silouhettes at the Simoni Rink"},"3c439fb30196492d9ca2035f2972de3d.16":{"guid":"3c439fb30196492d9ca2035f2972de3d.16","lat":42.375354,"lng":-71.092899,"name":"Taza Chocolate Factory"},"8f1cbd1a1df0421683cbf60271c7573e.16":{"guid":"8f1cbd1a1df0421683cbf60271c7573e.16","lat":42.375873,"lng":-71.093655,"name":"Windsor Place Grocery Garden"},"bf51a0193f9347a185e2a4a9df08bc55.16":{"guid":"bf51a0193f9347a185e2a4a9df08bc55.16","lat":42.373587,"lng":-71.088597,"name":"Nicky DeFrancesco Square"},"57cd98a9817d4823b93238af9ddafd36.16":{"guid":"57cd98a9817d4823b93238af9ddafd36.16","lat":42.3831,"lng":-71.086919,"name":"Glen Park"},"68134becaa0943a6b7d6156b986db0b2.16":{"guid":"68134becaa0943a6b7d6156b986db0b2.16","lat":42.383435,"lng":-71.086653,"name":"Glen Park Community Garden"},"617e6eca5c434f859b1144cbee176188.16":{"guid":"617e6eca5c434f859b1144cbee176188.16","lat":42.37762,"lng":-71.080993,"name":"Little Free Library"},"16661fa01b744c57bd5e64e05b76c128.16":{"guid":"16661fa01b744c57bd5e64e05b76c128.16","lat":42.381451,"lng":-71.09435,"name":"Sgt. Gaetano DiMille Square"},"83913f81062d42ae9d3a675f093b8dcc.16":{"guid":"83913f81062d42ae9d3a675f093b8dcc.16","lat":42.382499,"lng":-71.094572,"name":"The Grandview"},"05938a733e9e48bfa6c26bb9e8a87453.16":{"guid":"05938a733e9e48bfa6c26bb9e8a87453.16","lat":42.383169,"lng":-71.094549,"name":"Site of Old Windmill"},"90795937a0bb4f81b203ed6425482eeb.16":{"guid":"90795937a0bb4f81b203ed6425482eeb.16","lat":42.388743,"lng":-71.097282,"name":"a neighborhood barbecue"},"30ad837fec214b3ca037f0b1d302b9db.16":{"guid":"30ad837fec214b3ca037f0b1d302b9db.16","lat":42.387057,"lng":-71.104477,"name":"Adelbert Carpenter House"},"e7d5cfc1cf464a61863377535a5a42f2.16":{"guid":"e7d5cfc1cf464a61863377535a5a42f2.16","lat":42.383452,"lng":-71.09524,"name":"Buttner Memorial Square"},"44f5754fd4224641862f8817f11e9c03.16":{"guid":"44f5754fd4224641862f8817f11e9c03.16","lat":42.384314,"lng":-71.100257,"name":"Cattails Signal Box"},"1cb0c18622c44507bca2aba9e8677955.16":{"guid":"1cb0c18622c44507bca2aba9e8677955.16","lat":42.383546,"lng":-71.108596,"name":"Conway Sculptures"},"7c646631831d471bb86a9492fb0ee8f8.16":{"guid":"7c646631831d471bb86a9492fb0ee8f8.16","lat":42.386368,"lng":-71.101902,"name":"Cpl. Benedict A. Toomey Square"},"a95700bb26ca4815ab434ad64f82bbaf.16":{"guid":"a95700bb26ca4815ab434ad64f82bbaf.16","lat":42.383384,"lng":-71.098635,"name":"David Lord"},"641cdd4b9a224461a412b56557c99a52.16":{"guid":"641cdd4b9a224461a412b56557c99a52.16","lat":42.386809,"lng":-71.093457,"name":"Edward Leathers Community Park"},"3f97f70108f549e79488a5caab4cb8c5.16":{"guid":"3f97f70108f549e79488a5caab4cb8c5.16","lat":42.387221,"lng":-71.094632,"name":"El Pajaro"},"4fd4ed569dd849229cc59519ffb4206f.16":{"guid":"4fd4ed569dd849229cc59519ffb4206f.16","lat":42.387274,"lng":-71.093083,"name":"French Curve Signal Box"},"b04abe42fe88415c916e76fea82f461d.16":{"guid":"b04abe42fe88415c916e76fea82f461d.16","lat":42.388716,"lng":-71.104538,"name":"Guardian Lion"},"4dfb183b79244de49eb4144a1e486af1.16":{"guid":"4dfb183b79244de49eb4144a1e486af1.16","lat":42.386738,"lng":-71.09786,"name":"Honor Roll"},"d6ba8ccc9c0e473b8799ce1995e1ae02.16":{"guid":"d6ba8ccc9c0e473b8799ce1995e1ae02.16","lat":42.389125,"lng":-71.106244,"name":"Jeanne Jugan"},"d4941b30fac74c3b909a0307f5add8ac.16":{"guid":"d4941b30fac74c3b909a0307f5add8ac.16","lat":42.384903,"lng":-71.105,"name":"Light Of Dominion And Grace"},"3392d1237222454094c0462fef9364e3.16":{"guid":"3392d1237222454094c0462fef9364e3.16","lat":42.387063,"lng":-71.093746,"name":"Metal Sculpture"},"8cb904944e1f45508cdc0e161e066cb7.16":{"guid":"8cb904944e1f45508cdc0e161e066cb7.16","lat":42.387659,"lng":-71.101513,"name":"Mission Church"},"16e7e40b9a6b4e96aa76bd666d8d6082.16":{"guid":"16e7e40b9a6b4e96aa76bd666d8d6082.16","lat":42.386782,"lng":-71.090897,"name":"Mudville"},"9a808144cc8e48c4945ad762f3e6e3ba.16":{"guid":"9a808144cc8e48c4945ad762f3e6e3ba.16","lat":42.384887,"lng":-71.093759,"name":"Mussel Stars"},"41de23d09c3e48a58a9ce9ba6a998700.16":{"guid":"41de23d09c3e48a58a9ce9ba6a998700.16","lat":42.386486,"lng":-71.097243,"name":"Near This Site"},"db104aea8c4d406a91b03ed61db83db9.16":{"guid":"db104aea8c4d406a91b03ed61db83db9.16","lat":42.38367,"lng":-71.102234,"name":"Osgood Park"},"b7dbe1c618954c58ac3662f00c4063f9.16":{"guid":"b7dbe1c618954c58ac3662f00c4063f9.16","lat":42.383482,"lng":-71.102677,"name":"Osgood Too"},"2c058e2bb9124ae9a02e3ae1a9797fd3.16":{"guid":"2c058e2bb9124ae9a02e3ae1a9797fd3.16","lat":42.387519,"lng":-71.101046,"name":"Our Glorious Dead"},"d775769a9d244d5ca2280142b7c0d524.16":{"guid":"d775769a9d244d5ca2280142b7c0d524.16","lat":42.383317,"lng":-71.107441,"name":"Playground "},"aa48267b0f4d41bea0a47d1626c6ae3d.16":{"guid":"aa48267b0f4d41bea0a47d1626c6ae3d.16","lat":42.388042,"lng":-71.109074,"name":"Rotunda at Bailey Park"},"0a9dae9df9ac4333aa210a8db83bb4b1.16":{"guid":"0a9dae9df9ac4333aa210a8db83bb4b1.16","lat":42.387196,"lng":-71.092374,"name":"Salvo Memorial Square"},"9e6e32d987c24f99b24d3f1792316194.11":{"guid":"9e6e32d987c24f99b24d3f1792316194.11","lat":42.389536,"lng":-71.106086,"name":"Somerville Center for Arts at "},"22515fd2c4c74045a30648724ebcd568.16":{"guid":"22515fd2c4c74045a30648724ebcd568.16","lat":42.38537,"lng":-71.103018,"name":"Somerville Home Gazebo"},"fc4ca609e15442fdb5c53b6005e8a4f1.12":{"guid":"fc4ca609e15442fdb5c53b6005e8a4f1.12","lat":42.386967,"lng":-71.104735,"name":"Somerville Museum"},"8a0e44b18182428e913ecc05a1de8730.16":{"guid":"8a0e44b18182428e913ecc05a1de8730.16","lat":42.387745,"lng":-71.109726,"name":"Somerville Sports Mural"},"3e02ffa2e0674cbd9fe894a0db1b863a.16":{"guid":"3e02ffa2e0674cbd9fe894a0db1b863a.16","lat":42.388466,"lng":-71.096575,"name":"Stone Lion Relief Archway"},"8046958f9ce747fa8fbeb11fb6ca7bd1.16":{"guid":"8046958f9ce747fa8fbeb11fb6ca7bd1.16","lat":42.388653,"lng":-71.092367,"name":"TEC 4 Francis D. Daly U.S. Army Ww II Square"},"6bc029d670914128960fa50953f77036.16":{"guid":"6bc029d670914128960fa50953f77036.16","lat":42.386268,"lng":-71.096382,"name":"The Forgotten Victory"},"a647885037934240b60f93b20fe32ee1.16":{"guid":"a647885037934240b60f93b20fe32ee1.16","lat":42.38753,"lng":-71.093932,"name":"The K Stone"},"5080889b735c43d59f1062df63c56a25.12":{"guid":"5080889b735c43d59f1062df63c56a25.12","lat":42.383674,"lng":-71.095283,"name":"The Somerville House"},"1e5342a2958f41c4bfe1d84fa59ea763.16":{"guid":"1e5342a2958f41c4bfe1d84fa59ea763.16","lat":42.386147,"lng":-71.105122,"name":"Virgil J. Iannacone Square"},"c041dc3e7f2245e7ae654c70916b58d2.16":{"guid":"c041dc3e7f2245e7ae654c70916b58d2.16","lat":42.387479,"lng":-71.100928,"name":"War Memorial at Somerville Post 19"},"8d1848376f404677b2626640efd32fb3.11":{"guid":"8d1848376f404677b2626640efd32fb3.11","lat":42.391851,"lng":-71.107999,"name":"Albion Park"},"6f007e17a484465d973326d1b292bd85.16":{"guid":"6f007e17a484465d973326d1b292bd85.16","lat":42.3907,"lng":-71.096219,"name":"Brazilian Presbyterian Church "},"7463937d44674d2981af7524a2c2d0d5.16":{"guid":"7463937d44674d2981af7524a2c2d0d5.16","lat":42.391186,"lng":-71.090387,"name":"Chauncey Holt House"},"0261ac0cf2724d47ae47f0c43b11614c.16":{"guid":"0261ac0cf2724d47ae47f0c43b11614c.16","lat":42.392888,"lng":-71.089965,"name":"Cpl William F. Griffiths Square"},"4f2bf057ff50484383711ec48512726c.16":{"guid":"4f2bf057ff50484383711ec48512726c.16","lat":42.390638,"lng":-71.101926,"name":"Derby Desk and Nerf Ball Factory Mural"},"15469ec969874bdc8e718a52bbb68603.16":{"guid":"15469ec969874bdc8e718a52bbb68603.16","lat":42.391728,"lng":-71.091408,"name":"Elizabeth Peabody House"},"121cafff7e5a4b73b4d8fcd7bcb4485b.16":{"guid":"121cafff7e5a4b73b4d8fcd7bcb4485b.16","lat":42.390971,"lng":-71.090288,"name":"George Cedric Stimpson"},"b0266a95df2a48418a9ca036ea8d0af5.16":{"guid":"b0266a95df2a48418a9ca036ea8d0af5.16","lat":42.392771,"lng":-71.093078,"name":"Harbor Mural"},"2ea6cd2da9b14378bb98b04f53010e2e.16":{"guid":"2ea6cd2da9b14378bb98b04f53010e2e.16","lat":42.390393,"lng":-71.094085,"name":"Marshall Street Park"},"40bc7a0126ba4f0f97be18a247ba493e.16":{"guid":"40bc7a0126ba4f0f97be18a247ba493e.16","lat":42.388176,"lng":-71.090227,"name":"Cremin Playground"},"b3fa0eb7938c4c0d8f5cae43119e46c1.16":{"guid":"b3fa0eb7938c4c0d8f5cae43119e46c1.16","lat":42.39086,"lng":-71.099953,"name":"Peter and Oliver Tufts House"},"6351d92d7e85448bb9ba9e668ec07cb3.16":{"guid":"6351d92d7e85448bb9ba9e668ec07cb3.16","lat":42.391014,"lng":-71.091227,"name":"Reilly and Brickley Memorial"},"ee9e9053979f43e0a096a1e9a979209d.16":{"guid":"ee9e9053979f43e0a096a1e9a979209d.16","lat":42.39085,"lng":-71.099049,"name":"Richard R.Maclone Square"},"90bc1bef9aaf48dab246abe480e5e82f.16":{"guid":"90bc1bef9aaf48dab246abe480e5e82f.16","lat":42.390693,"lng":-71.098563,"name":"Saint Ann's Church"},"79216862426443fcb177e827e38c8e58.16":{"guid":"79216862426443fcb177e827e38c8e58.16","lat":42.390027,"lng":-71.091509,"name":"Sgt Paul McCarthy Square"},"1d052a97e3bb4c158368c9263ae3fad4.16":{"guid":"1d052a97e3bb4c158368c9263ae3fad4.16","lat":42.391945,"lng":-71.097186,"name":"Somerville City Hall Annex"},"56a378f064b34a69b8604eca2fa593c8.16":{"guid":"56a378f064b34a69b8604eca2fa593c8.16","lat":42.392,"lng":-71.093258,"name":"Somerville Greater Works Church of God"},"b20b9506894a41f0b8397bc7c8d562f5.16":{"guid":"b20b9506894a41f0b8397bc7c8d562f5.16","lat":42.391011,"lng":-71.104128,"name":"Somerville Junction Park"},"37da72137cb54438902e6795a7c6d2d2.16":{"guid":"37da72137cb54438902e6795a7c6d2d2.16","lat":42.392326,"lng":-71.098508,"name":"SSG David M. Bambrick Square"},"e2948f9d6dc240479f9e1ec3337a8ee3.16":{"guid":"e2948f9d6dc240479f9e1ec3337a8ee3.16","lat":42.391352,"lng":-71.098005,"name":"St Ann Parish Center"},"bf94739b9c8f44b79d7a4f16e2bbaac4.16":{"guid":"bf94739b9c8f44b79d7a4f16e2bbaac4.16","lat":42.39019,"lng":-71.108092,"name":"Stripes and Solids"},"4f078f9cd1524730b65081f49a725130.16":{"guid":"4f078f9cd1524730b65081f49a725130.16","lat":42.390037,"lng":-71.100502,"name":"Susan Russell House"},"16efe144006d4c5ba8c4727ad9a6e841.16":{"guid":"16efe144006d4c5ba8c4727ad9a6e841.16","lat":42.389554,"lng":-71.101383,"name":"Willoughby Little Library"},"c18589adb4304021a71055388ca0a049.16":{"guid":"c18589adb4304021a71055388ca0a049.16","lat":42.39177,"lng":-71.098983,"name":"Winter Hill Community School Mural"},"c95e7132c6b04213a2d5a37906591a52.12":{"guid":"c95e7132c6b04213a2d5a37906591a52.12","lat":42.392544,"lng":-71.093531,"name":"Winter Hill Post Office"},"50db01389b63424fa9ba2f4625c153b1.16":{"guid":"50db01389b63424fa9ba2f4625c153b1.16","lat":42.388431,"lng":-71.115734,"name":"Best Pest Control Bug"},"fbc4982d3b5947efaeaf33080ed3a585.16":{"guid":"fbc4982d3b5947efaeaf33080ed3a585.16","lat":42.389246,"lng":-71.116465,"name":"Domenic Prato, Sr. Square"},"a766e6b8bcd545ca8de9d77726cda646.16":{"guid":"a766e6b8bcd545ca8de9d77726cda646.16","lat":42.392466,"lng":-71.112293,"name":"Lions of Somerville Gate"},"9076d55bd20a45a58146dbb47d93bd7a.16":{"guid":"9076d55bd20a45a58146dbb47d93bd7a.16","lat":42.39338,"lng":-71.107109,"name":"Maxwell's Green Historical Marker"},"17e6e11ec8784652a524d5350989d4b4.16":{"guid":"17e6e11ec8784652a524d5350989d4b4.16","lat":42.3881,"lng":-71.110739,"name":"Morse Kelley Playground"},"5b871f2c0d3c424e8469117de19fcf85.16":{"guid":"5b871f2c0d3c424e8469117de19fcf85.16","lat":42.395035,"lng":-71.110286,"name":"Muskat Studios"},"259182dd82fa49ddb9256e06097db872.16":{"guid":"259182dd82fa49ddb9256e06097db872.16","lat":42.394036,"lng":-71.111384,"name":"Somerville Community Path College Ave Section"},"8b4421e73e114641ada0a106b3817911.16":{"guid":"8b4421e73e114641ada0a106b3817911.16","lat":42.38642,"lng":-71.112416,"name":"1908 Dante Club"},"241932096de54554b3a0d1fd55d99a28.16":{"guid":"241932096de54554b3a0d1fd55d99a28.16","lat":42.385014,"lng":-71.112312,"name":"Artistic Electrical Box"},"fdb77e20c3aa49f0ad63294e7721fd92.16":{"guid":"fdb77e20c3aa49f0ad63294e7721fd92.16","lat":42.382658,"lng":-71.10443,"name":"Baratta Memorial"},"752cbd6735694889955ba3812501f88b.16":{"guid":"752cbd6735694889955ba3812501f88b.16","lat":42.381841,"lng":-71.105893,"name":"Brooklyn Boulders Somerville "},"86087bde658f427784edf5c6bca41c0d.16":{"guid":"86087bde658f427784edf5c6bca41c0d.16","lat":42.384137,"lng":-71.110898,"name":"Christian Fellowship Boston"},"e5d5365b9eaa41f5bb0566538067670b.16":{"guid":"e5d5365b9eaa41f5bb0566538067670b.16","lat":42.384664,"lng":-71.111688,"name":"Departed Dedication"},"bc39d063a65a45a3960a0b8dcc4cb8c3.16":{"guid":"bc39d063a65a45a3960a0b8dcc4cb8c3.16","lat":42.381863,"lng":-71.10188,"name":"Milk Row Cemetery"},"ee1766d0d797474882e11988e02b486b.16":{"guid":"ee1766d0d797474882e11988e02b486b.16","lat":42.382072,"lng":-71.10254,"name":"Northeast Judo Club"},"aa2b3667e1bb41eab79c55eaa1a08e91.16":{"guid":"aa2b3667e1bb41eab79c55eaa1a08e91.16","lat":42.383001,"lng":-71.098972,"name":"Nunziato Field Off Leash Recreation Area Park"},"c1f73faf7908433a8b797617957da5bd.16":{"guid":"c1f73faf7908433a8b797617957da5bd.16","lat":42.382561,"lng":-71.103518,"name":"Quilted Signal Box"},"5817efe993164979817b6a2def247abc.16":{"guid":"5817efe993164979817b6a2def247abc.16","lat":42.382581,"lng":-71.100831,"name":"Quincy Street Open Space"},"0090e23b82c74b61be3e8f29f849949e.16":{"guid":"0090e23b82c74b61be3e8f29f849949e.16","lat":42.38625,"lng":-71.113773,"name":"The Happy Bean"},"f93c6eed0daa4a4bbcf25685f27d9490.16":{"guid":"f93c6eed0daa4a4bbcf25685f27d9490.16","lat":42.383285,"lng":-71.107885,"name":"Conway Park"},"5036566fc40a44cc8c7c1489134583ef.16":{"guid":"5036566fc40a44cc8c7c1489134583ef.16","lat":42.387201,"lng":-71.108004,"name":"St Catherine of Genoa Church"},"d7e64d8e4a8947dda97f9f10bc8fb7c9.16":{"guid":"d7e64d8e4a8947dda97f9f10bc8fb7c9.16","lat":42.387975,"lng":-71.101784,"name":"The Mysterious Stranger"},"8c72b57b498742338087e68e6d7b11b7.16":{"guid":"8c72b57b498742338087e68e6d7b11b7.16","lat":42.384834,"lng":-71.105628,"name":"Dormition of the Virgin Mary Greek Orthodox Church"},"e49039342d6c4f8d997aee7b97b8776b.12":{"guid":"e49039342d6c4f8d997aee7b97b8776b.12","lat":42.38577,"lng":-71.094392,"name":"Somerville Public Library"},"82e70af3724c40b298ec60057d2b478e.16":{"guid":"82e70af3724c40b298ec60057d2b478e.16","lat":42.388177,"lng":-71.095304,"name":"Hunters Hunted Mural"},"1cd042718a734667ae1fdf99fb889411.16":{"guid":"1cd042718a734667ae1fdf99fb889411.16","lat":42.386613,"lng":-71.111821,"name":"Dickerman Playground"},"4de610df2e804e52a6731b24da0d764b.16":{"guid":"4de610df2e804e52a6731b24da0d764b.16","lat":42.387795,"lng":-71.115426,"name":"Bike Art on Door"},"1eae2df36fc04f67bd8fc6bf2fcc8dc7.16":{"guid":"1eae2df36fc04f67bd8fc6bf2fcc8dc7.16","lat":42.393993,"lng":-71.116734,"name":"Needle and Thread Art"},"8086567342fa4ede885c868a40293d4c.16":{"guid":"8086567342fa4ede885c868a40293d4c.16","lat":42.3902,"lng":-71.117705,"name":"Blessing of the Bay mural"},"354c622e3f9642818d7e9ebfed0f4a17.16":{"guid":"354c622e3f9642818d7e9ebfed0f4a17.16","lat":42.392913,"lng":-71.117563,"name":"Polka Dots Electrical Box"},"591a789c9b584d618462d371af1be449.16":{"guid":"591a789c9b584d618462d371af1be449.16","lat":42.395527,"lng":-71.121895,"name":"Telephone Booth Art"},"797fcc44be5648b197da91b03b5fd6f1.16":{"guid":"797fcc44be5648b197da91b03b5fd6f1.16","lat":42.395176,"lng":-71.122191,"name":"Dog Mural"},"90ba48e1cb3a43949fb18aa7eb59b625.16":{"guid":"90ba48e1cb3a43949fb18aa7eb59b625.16","lat":42.394326,"lng":-71.120921,"name":"The Rosebud"},"75b6e3ac0b7a4d9ba218e737f94ea1ce.11":{"guid":"75b6e3ac0b7a4d9ba218e737f94ea1ce.11","lat":42.395958,"lng":-71.118952,"name":"Bikeway Community Garden"},"556026891ba74b56b98dc2cac2ad3069.16":{"guid":"556026891ba74b56b98dc2cac2ad3069.16","lat":42.396257,"lng":-71.122041,"name":"The Green Monster Newspaper Box"},"b0332d9ceee8434a982b967d897a4af5.16":{"guid":"b0332d9ceee8434a982b967d897a4af5.16","lat":42.388108,"lng":-71.119093,"name":"Porter Square Megaliths"},"909d6989818340c6874f71bbe4e2b2a5.16":{"guid":"909d6989818340c6874f71bbe4e2b2a5.16","lat":42.397512,"lng":-71.093158,"name":"Beloved Kitty"},"64ae0c92d8594a4e8fa5ff61df978810.12":{"guid":"64ae0c92d8594a4e8fa5ff61df978810.12","lat":42.39805,"lng":-71.121523,"name":"Somerville Public Library"},"7f0d8969429143988027ffcab2a3c4a4.16":{"guid":"7f0d8969429143988027ffcab2a3c4a4.16","lat":42.38986,"lng":-71.119035,"name":"Porter Square Backing Mural"},"0b59e34b39f948a7affbda3f4d3a321d.16":{"guid":"0b59e34b39f948a7affbda3f4d3a321d.16","lat":42.399502,"lng":-71.124822,"name":"SAC Switchbox by Grace Durnford"},"140c470a27464a19b9c4bb626375ca7a.11":{"guid":"140c470a27464a19b9c4bb626375ca7a.11","lat":42.397037,"lng":-71.123497,"name":"Performer Statue"},"19dfeb5dd6b3492d98f08bbe418030cf.16":{"guid":"19dfeb5dd6b3492d98f08bbe418030cf.16","lat":42.396722,"lng":-71.122811,"name":"Somerville Theatre"},"b1e1f6b741eb41ca8b05c34c38cd68f9.16":{"guid":"b1e1f6b741eb41ca8b05c34c38cd68f9.16","lat":42.397637,"lng":-71.123554,"name":"Sea Carvings"},"d35f005120a74ed2bc84e74224eaeec7.11":{"guid":"d35f005120a74ed2bc84e74224eaeec7.11","lat":42.388498,"lng":-71.11928,"name":"Gift of the Wind"},"46e50b4c33a74d7a9cbd88ab78c85e07.16":{"guid":"46e50b4c33a74d7a9cbd88ab78c85e07.16","lat":42.397168,"lng":-71.124405,"name":"Prospect Hill Tower"},"1d4814fbb8d548cbb1665125633b1a79.11":{"guid":"1d4814fbb8d548cbb1665125633b1a79.11","lat":42.396673,"lng":-71.122483,"name":"Davis Square Masked Statues"},"bc8dde77b6694f8084c4d0117a7f7431.16":{"guid":"bc8dde77b6694f8084c4d0117a7f7431.16","lat":42.397528,"lng":-71.104262,"name":"Magoun Square Clock"},"5f3989f19c23402b87a620ff9fbe39ac.16":{"guid":"5f3989f19c23402b87a620ff9fbe39ac.16","lat":42.398287,"lng":-71.102894,"name":"Guardian Lion"},"da9eb99bbb9447fb8d22857f8503a106.11":{"guid":"da9eb99bbb9447fb8d22857f8503a106.11","lat":42.391161,"lng":-71.118453,"name":"A Sharp Fight, April 19, 1775"},"12e249af6632458f94f83da9075bb9ec.16":{"guid":"12e249af6632458f94f83da9075bb9ec.16","lat":42.394863,"lng":-71.121438,"name":"Bicycle Wheel Dragon"},"61f5a2f580814b8189ee143e0d97f816.16":{"guid":"61f5a2f580814b8189ee143e0d97f816.16","lat":42.394246,"lng":-71.121218,"name":"Bound Electrical Box Mural"},"6b058cc08daa4d388aa5460f03512687.16":{"guid":"6b058cc08daa4d388aa5460f03512687.16","lat":42.394006,"lng":-71.120241,"name":"Dilboy Post 529 VFW"},"a6de446a6c8d4a14a238a155b42a16ae.16":{"guid":"a6de446a6c8d4a14a238a155b42a16ae.16","lat":42.395253,"lng":-71.120485,"name":"Grove St Park"},"95c6b9a92f3349f28cc3eed76bf99e43.16":{"guid":"95c6b9a92f3349f28cc3eed76bf99e43.16","lat":42.395256,"lng":-71.115631,"name":"I Am Strong Electrical Box"},"e2c7e0930cb84dc1bed60ae68454f473.11":{"guid":"e2c7e0930cb84dc1bed60ae68454f473.11","lat":42.395506,"lng":-71.120228,"name":"Kenney Park"},"bb86cfc1dcf447ddbf2d6f530f40d681.16":{"guid":"bb86cfc1dcf447ddbf2d6f530f40d681.16","lat":42.394996,"lng":-71.112744,"name":"Philip Gagliardi US Navy"},"ffe1b2fbe36e47a6936796b07b5b6221.16":{"guid":"ffe1b2fbe36e47a6936796b07b5b6221.16","lat":42.394601,"lng":-71.117627,"name":"Prince Gallery"},"eb70defeca974d0d8579e3c1f6e1e3a2.16":{"guid":"eb70defeca974d0d8579e3c1f6e1e3a2.16","lat":42.389024,"lng":-71.119401,"name":"Rand Estate"},"9fcb2701170445cebf19f0785613a3ee.16":{"guid":"9fcb2701170445cebf19f0785613a3ee.16","lat":42.393592,"lng":-71.1209,"name":"Responsible Grace Church"},"bc4e4c697a064f8da768111056268a62.16":{"guid":"bc4e4c697a064f8da768111056268a62.16","lat":42.390249,"lng":-71.118449,"name":"Saginaw Mural Cooperative"},"ce6cd2dffff145f7b5a7e4ebe649b63b.16":{"guid":"ce6cd2dffff145f7b5a7e4ebe649b63b.16","lat":42.392541,"lng":-71.119793,"name":"Sundial on Sundial Professional Building"},"e18c57cfc48243c4b84911d71f1b32b9.16":{"guid":"e18c57cfc48243c4b84911d71f1b32b9.16","lat":42.395281,"lng":-71.119332,"name":"The Miracle"},"5c0592decc4d462caa60ce063bcc0b8a.16":{"guid":"5c0592decc4d462caa60ce063bcc0b8a.16","lat":42.39578,"lng":-71.118201,"name":"Tiffany's Memorial"},"3f6278c982794fe581dca8c76186b550.16":{"guid":"3f6278c982794fe581dca8c76186b550.16","lat":42.386046,"lng":-71.087477,"name":"Big Chair"},"68f5e2a530824a68af2738aa557f4ae1.16":{"guid":"68f5e2a530824a68af2738aa557f4ae1.16","lat":42.388366,"lng":-71.084925,"name":"Fasika Window Mural"},"5c360ed34d374a15a33248d961c6da10.16":{"guid":"5c360ed34d374a15a33248d961c6da10.16","lat":42.393273,"lng":-71.094365,"name":"Hand of God"},"293542f69d014535ae2a2933ec3e4b4f.16":{"guid":"293542f69d014535ae2a2933ec3e4b4f.16","lat":42.394216,"lng":-71.091998,"name":"Monster Box"},"723432c4dfa94173aa2221c5be3f4b60.16":{"guid":"723432c4dfa94173aa2221c5be3f4b60.16","lat":42.394199,"lng":-71.096918,"name":"Youth With A Mission"},"39c6560c66a0451dbb9500ae6c6e0de8.16":{"guid":"39c6560c66a0451dbb9500ae6c6e0de8.16","lat":42.393624,"lng":-71.092692,"name":"Eglise Evangelique Church of Somerville"},"438b793621434a0d9cd808cf121fe2c4.16":{"guid":"438b793621434a0d9cd808cf121fe2c4.16","lat":42.378421,"lng":-71.106694,"name":"Dali Mural"},"6bdda10e31894bb28d80909df6e00498.16":{"guid":"6bdda10e31894bb28d80909df6e00498.16","lat":42.378249,"lng":-71.106919,"name":"Kirkland Tap and Trotter"},"1062498af7d840f3bc2389f6598e27f3.16":{"guid":"1062498af7d840f3bc2389f6598e27f3.16","lat":42.387794,"lng":-71.084304,"name":"A Good Night's Sleep Signal Box"},"0609610ee07d4d72869b61c3642b0a56.16":{"guid":"0609610ee07d4d72869b61c3642b0a56.16","lat":42.38735,"lng":-71.082257,"name":"I'm a Surprised Octopus"},"7572a7dd87504979b8e627aa316eb481.16":{"guid":"7572a7dd87504979b8e627aa316eb481.16","lat":42.381518,"lng":-71.105024,"name":"Artisan's Asylum"},"d0244293e4824dc5958fa7162c77d6e4.16":{"guid":"d0244293e4824dc5958fa7162c77d6e4.16","lat":42.391806,"lng":-71.079971,"name":"Assembly Row containers"},"8385d2b1f6854c1a9abe7e0b0abf1fe2.16":{"guid":"8385d2b1f6854c1a9abe7e0b0abf1fe2.16","lat":42.37818,"lng":-71.110791,"name":"Birthplace of E. E. Cummings"},"6303514e798e41b48ab512dff9087c4e.16":{"guid":"6303514e798e41b48ab512dff9087c4e.16","lat":42.377973,"lng":-71.10744,"name":"Bon Appetit - JC"},"6363a77a3c634b65ac28faa196130591.16":{"guid":"6363a77a3c634b65ac28faa196130591.16","lat":42.385287,"lng":-71.077787,"name":"Caldwell Street Play Area"},"a1b0be2f0c46445ca67e8911455b4bde.16":{"guid":"a1b0be2f0c46445ca67e8911455b4bde.16","lat":42.38556,"lng":-71.077443,"name":"Dandelion Mural"},"b196d080edaf4825b2515ecc88fd2966.16":{"guid":"b196d080edaf4825b2515ecc88fd2966.16","lat":42.381348,"lng":-71.106895,"name":"ESH Circus Arts"},"4f88a3702d534af0a7935de6b3fef73e.16":{"guid":"4f88a3702d534af0a7935de6b3fef73e.16","lat":42.378294,"lng":-71.101309,"name":"Off Leash Recreation Area"},"969a621f466e4ee490be2a77a2871568.16":{"guid":"969a621f466e4ee490be2a77a2871568.16","lat":42.381204,"lng":-71.101903,"name":"Old Boxing Club"},"f5b96b96107f494ea0b645a493212834.16":{"guid":"f5b96b96107f494ea0b645a493212834.16","lat":42.382233,"lng":-71.079408,"name":"Tavern At The End Of The World"},"50cc1bf0a53f43a0a384afaa59030108.16":{"guid":"50cc1bf0a53f43a0a384afaa59030108.16","lat":42.389413,"lng":-71.087145,"name":"The Famous Louie's"},"3446541bbd244fe9b16e4e2b03740d7b.16":{"guid":"3446541bbd244fe9b16e4e2b03740d7b.16","lat":42.381234,"lng":-71.102442,"name":"The Pirate Ship"},"098fa8eb2dad419e9672009ea389b4df.16":{"guid":"098fa8eb2dad419e9672009ea389b4df.16","lat":42.381657,"lng":-71.105835,"name":"The Royal Lying Bee"},"a870d94f2e004bc0b2150b04da77e399.16":{"guid":"a870d94f2e004bc0b2150b04da77e399.16","lat":42.397685,"lng":-71.114467,"name":"Seaman John Clancy Square"},"978fb4f086364e089b29d6866e242b06.16":{"guid":"978fb4f086364e089b29d6866e242b06.16","lat":42.396574,"lng":-71.092058,"name":"Battleship Playground"},"24eba432c1a544fc8a659e3f8a3b4b4a.16":{"guid":"24eba432c1a544fc8a659e3f8a3b4b4a.16","lat":42.396521,"lng":-71.083264,"name":"Christmas Tree Clock Tower"},"868237e304f74d1285053977e4195fe1.16":{"guid":"868237e304f74d1285053977e4195fe1.16","lat":42.397268,"lng":-71.091097,"name":"Somerville Beach Mural"},"0717541e5d444c83b59797dde33b693e.16":{"guid":"0717541e5d444c83b59797dde33b693e.16","lat":42.398527,"lng":-71.085186,"name":"Mystic River Reservation Monolith"},"d06a4e83cfa147cf9f3770997869775e.16":{"guid":"d06a4e83cfa147cf9f3770997869775e.16","lat":42.398484,"lng":-71.084662,"name":"Mystic River Reservation Trail"},"5b53b393937a42c5a453663361fa2204.16":{"guid":"5b53b393937a42c5a453663361fa2204.16","lat":42.398371,"lng":-71.089819,"name":"Watershed Worth Protecting"},"a8d898a14ae14973baff5f815a22d068.16":{"guid":"a8d898a14ae14973baff5f815a22d068.16","lat":42.39573,"lng":-71.08447,"name":"District Court of Somerville"},"0d67fa5bc75b4a779f4a70880051c263.16":{"guid":"0d67fa5bc75b4a779f4a70880051c263.16","lat":42.395324,"lng":-71.091224,"name":"Middlesex Canal Original Path"},"bb9b4ba412c84803a6cd52398fee87d2.12":{"guid":"bb9b4ba412c84803a6cd52398fee87d2.12","lat":42.395413,"lng":-71.090864,"name":"Polycarp front"},"d830b93f5b274b44a3ee6d4f885e375e.16":{"guid":"d830b93f5b274b44a3ee6d4f885e375e.16","lat":42.395508,"lng":-71.079608,"name":"Metal Acorn"},"239084c8adb743438cdd54a9cadb3067.16":{"guid":"239084c8adb743438cdd54a9cadb3067.16","lat":42.395873,"lng":-71.080139,"name":"Star and Shields Bas Relief"},"18f6e81250374a98bda9438476ca0084.16":{"guid":"18f6e81250374a98bda9438476ca0084.16","lat":42.398036,"lng":-71.089784,"name":"Gov. Winthrop's Mansion Site"},"eed6bd6885514cfe85b0c8249919f864.16":{"guid":"eed6bd6885514cfe85b0c8249919f864.16","lat":42.397037,"lng":-71.09436,"name":"Chess For Three"},"38da5c11a121405383ad1664711e98b7.16":{"guid":"38da5c11a121405383ad1664711e98b7.16","lat":42.39675,"lng":-71.094092,"name":"Beloved Fluffy"},"5a59c91c73f0444c8417167923ecd30c.16":{"guid":"5a59c91c73f0444c8417167923ecd30c.16","lat":42.395761,"lng":-71.090309,"name":"St. Polycarp Statue"},"b3621eea5be641fab4d79794adf48364.16":{"guid":"b3621eea5be641fab4d79794adf48364.16","lat":42.396841,"lng":-71.112181,"name":"Flight Officer O'Leary"},"15b0f909934e488e8b43a78e8f1c400b.16":{"guid":"15b0f909934e488e8b43a78e8f1c400b.16","lat":42.397441,"lng":-71.108248,"name":"Richard Trum Playground Plaque"},"fde31fadeda544598274df72ae0f471e.16":{"guid":"fde31fadeda544598274df72ae0f471e.16","lat":42.39611,"lng":-71.103516,"name":"New England Science Fiction Association"},"4f90aa5609464e71a806ca16e56cd965.16":{"guid":"4f90aa5609464e71a806ca16e56cd965.16","lat":42.396719,"lng":-71.103959,"name":"Olde Magoun’s Saloon "},"0da29abcc8624063b165c7359dd15d8b.16":{"guid":"0da29abcc8624063b165c7359dd15d8b.16","lat":42.397667,"lng":-71.104916,"name":"Wang's"},"cf59ee58b36f4c939d23d85718d6febd.16":{"guid":"cf59ee58b36f4c939d23d85718d6febd.16","lat":42.398063,"lng":-71.106907,"name":"Trum Field"},"11021966d97142828c30b7e02e32e1c7.16":{"guid":"11021966d97142828c30b7e02e32e1c7.16","lat":42.399398,"lng":-71.101503,"name":"Cambridge Seventh Day Adventist Church "},"63d98e144072417fa06c4e29d222ccf4.16":{"guid":"63d98e144072417fa06c4e29d222ccf4.16","lat":42.396613,"lng":-71.09645,"name":"Brigida (Bessie) Federico Square"},"94b7983fd28a4ecfaa359a7807242444.16":{"guid":"94b7983fd28a4ecfaa359a7807242444.16","lat":42.400721,"lng":-71.104008,"name":"The Arrival"},"08ed322be3154e6783239736451bba11.16":{"guid":"08ed322be3154e6783239736451bba11.16","lat":42.395266,"lng":-71.099056,"name":"Broadway Winter Hill Congregational Church"},"1717c789cf29463ba4769adc2bebf940.16":{"guid":"1717c789cf29463ba4769adc2bebf940.16","lat":42.395108,"lng":-71.097769,"name":"Site of the Winter Hill Fort Memorial Monument"},"4e67b0137f264f299e174558af0421fd.16":{"guid":"4e67b0137f264f299e174558af0421fd.16","lat":42.396943,"lng":-71.099251,"name":"Vito Vaccaro Memorial Square"},"1aa8b06da43e46e39ba90a7c25a596a2.16":{"guid":"1aa8b06da43e46e39ba90a7c25a596a2.16","lat":42.395761,"lng":-71.103209,"name":"Billy Johnson Junior Square"},"f26d4a679cef46f99a671e2a8ddf268b.16":{"guid":"f26d4a679cef46f99a671e2a8ddf268b.16","lat":42.397107,"lng":-71.099936,"name":"Anthony J Dicarlo Square Sign"},"67fc3e1cb6074111b3ba988e9a17b4b1.16":{"guid":"67fc3e1cb6074111b3ba988e9a17b4b1.16","lat":42.389554,"lng":-71.120396,"name":"Cambridge Masonic Temple"},"8d299f4a054f4a818afdc271bea6dfd2.16":{"guid":"8d299f4a054f4a818afdc271bea6dfd2.16","lat":42.389569,"lng":-71.119869,"name":"Newtowne Club"},"d846d3286b044d50906c9e4f259b356a.16":{"guid":"d846d3286b044d50906c9e4f259b356a.16","lat":42.388762,"lng":-71.118812,"name":"Porter Square Outdoor Art Gallery Windows"},"b741d8a9db954bd1a42fba91ef0b737e.16":{"guid":"b741d8a9db954bd1a42fba91ef0b737e.16","lat":42.389563,"lng":-71.118751,"name":"Porter Square Clock"},"ed1ccd99c45041fb917ffa1b81f59494.16":{"guid":"ed1ccd99c45041fb917ffa1b81f59494.16","lat":42.387755,"lng":-71.119732,"name":"In Memory Of Pompeo Leone"},"ee125c25ac9b4d93ad1bfb681a85a53c.16":{"guid":"ee125c25ac9b4d93ad1bfb681a85a53c.16","lat":42.390644,"lng":-71.121983,"name":"The Cambridge School of Culinary Arts"},"1d4a30edffe24620b5c82b8e73a63a60.16":{"guid":"1d4a30edffe24620b5c82b8e73a63a60.16","lat":42.391899,"lng":-71.123798,"name":"Joseph M Curran Square"},"a68b6c783cea4b09bb0813de0f7051f0.16":{"guid":"a68b6c783cea4b09bb0813de0f7051f0.16","lat":42.388562,"lng":-71.134097,"name":"Mayor Danehy Park"},"1bd29ff951b44ba989ffe7f0d65dd789.16":{"guid":"1bd29ff951b44ba989ffe7f0d65dd789.16","lat":42.389011,"lng":-71.133436,"name":"Regina Antoine Tot Lot"},"435098b9846d497baabf9b701ac01b6f.16":{"guid":"435098b9846d497baabf9b701ac01b6f.16","lat":42.388633,"lng":-71.133124,"name":"Shawn Megan Memorial Garden"},"1137ae914d4043479e985a773877e626.16":{"guid":"1137ae914d4043479e985a773877e626.16","lat":42.38895,"lng":-71.132717,"name":"Thomas W. Danehy Park"},"e943ac2fb8d44f15938ee394a1846858.16":{"guid":"e943ac2fb8d44f15938ee394a1846858.16","lat":42.395812,"lng":-71.120492,"name":"Big Brother Electrical Box"},"9cc45dd98c6d4d7f9cdf169a21482717.16":{"guid":"9cc45dd98c6d4d7f9cdf169a21482717.16","lat":42.389371,"lng":-71.124627,"name":"Ye Olde Cambridge Cattle Market"},"0e2653d541ae4c4b8340c7ee6e10e91c.16":{"guid":"0e2653d541ae4c4b8340c7ee6e10e91c.16","lat":42.388935,"lng":-71.125149,"name":"Judy Merchant Square"},"9754c060f76b4777a5172fe3ee01be64.16":{"guid":"9754c060f76b4777a5172fe3ee01be64.16","lat":42.389219,"lng":-71.126287,"name":"Crazy Birdhouse Tree"},"c2c4fcef277241dfa2ebccdbf52175b6.16":{"guid":"c2c4fcef277241dfa2ebccdbf52175b6.16","lat":42.386714,"lng":-71.127205,"name":"Raymond Park"},"e0b6eb930b5b4a669a2ee47e12860457.16":{"guid":"e0b6eb930b5b4a669a2ee47e12860457.16","lat":42.391238,"lng":-71.127321,"name":"Three Clouds"},"39f5538125034951b79fd4709866cc21.16":{"guid":"39f5538125034951b79fd4709866cc21.16","lat":42.390646,"lng":-71.127505,"name":"Gerard  F Bergin Park"},"b414723c55c94fa1853d41f8acac69e6.16":{"guid":"b414723c55c94fa1853d41f8acac69e6.16","lat":42.384916,"lng":-71.119559,"name":"Oldest House in Cambridge"},"440e4f0c5992499dbcff0dc44858a2d6.16":{"guid":"440e4f0c5992499dbcff0dc44858a2d6.16","lat":42.390956,"lng":-71.11974,"name":"Hope Fellowship Church "},"cab50e94153947d3b5c6b560ad8d3f4d.16":{"guid":"cab50e94153947d3b5c6b560ad8d3f4d.16","lat":42.381834,"lng":-71.096387,"name":"Old District Court of Somerville"},"5f90b0748f3544eea5f3fd3b1558ccff.16":{"guid":"5f90b0748f3544eea5f3fd3b1558ccff.16","lat":42.3823,"lng":-71.110549,"name":"Harisson Flag Mural"},"d81d317a11bf4f9caab56444b0e98544.16":{"guid":"d81d317a11bf4f9caab56444b0e98544.16","lat":42.383474,"lng":-71.110076,"name":"Igreja Apostolica Missiones Mundial "},"633de0060feb488fa5ca9da3089748b9.16":{"guid":"633de0060feb488fa5ca9da3089748b9.16","lat":42.383652,"lng":-71.112243,"name":"Graphic Wall Art"},"8b2f20780c3d45d188aafc634f9d15bf.12":{"guid":"8b2f20780c3d45d188aafc634f9d15bf.12","lat":42.392543,"lng":-71.124291,"name":"AFSC Film Library"},"892f6833e8f44ad9b0f9a0a9aea1f202.16":{"guid":"892f6833e8f44ad9b0f9a0a9aea1f202.16","lat":42.395227,"lng":-71.077842,"name":"PRNDL"},"5bf191cfd02a4e97942e1c9023f17611.16":{"guid":"5bf191cfd02a4e97942e1c9023f17611.16","lat":42.394071,"lng":-71.080364,"name":"Art Deco Glasswork"},"0ba9bbbebb354810abd8b3e980b63c75.16":{"guid":"0ba9bbbebb354810abd8b3e980b63c75.16","lat":42.394784,"lng":-71.080918,"name":"A Deft Maneuver"},"3bd372af9e0f4005a12a6702f892ab39.16":{"guid":"3bd372af9e0f4005a12a6702f892ab39.16","lat":42.394238,"lng":-71.079237,"name":"Pine Cone Tree Sculpture "},"197fed87fbc34b9988c73ae90808e5b5.16":{"guid":"197fed87fbc34b9988c73ae90808e5b5.16","lat":42.394141,"lng":-71.077586,"name":"Floral Mural "},"3d56caaf2eaa4925abe9ceb101cacc0f.16":{"guid":"3d56caaf2eaa4925abe9ceb101cacc0f.16","lat":42.394549,"lng":-71.079183,"name":"Ivy Carved in Iron"},"7c5a068bb9194c7f93764842fe1377ae.16":{"guid":"7c5a068bb9194c7f93764842fe1377ae.16","lat":42.39591,"lng":-71.078581,"name":"Assembly Turtle"},"54d8b5b53c144654b5d12957168fb18a.16":{"guid":"54d8b5b53c144654b5d12957168fb18a.16","lat":42.395762,"lng":-71.077602,"name":"WHYC"},"1098276c34bb4d1188c17c9cebe85f3a.16":{"guid":"1098276c34bb4d1188c17c9cebe85f3a.16","lat":42.39429,"lng":-71.076442,"name":"Patrick L. Sullivan Memorial"},"3721b69783974790a0571d898caf45fc.16":{"guid":"3721b69783974790a0571d898caf45fc.16","lat":42.395134,"lng":-71.078232,"name":"Assembly Square Garage Mural"},"a3918355ddd645c994712fdc24c07787.16":{"guid":"a3918355ddd645c994712fdc24c07787.16","lat":42.398312,"lng":-71.083569,"name":"Sylvester Baxter Park"},"d3e8eac76be0430d90ac27da735c6f98.16":{"guid":"d3e8eac76be0430d90ac27da735c6f98.16","lat":42.396422,"lng":-71.081344,"name":"Blue Sculpt"},"81dea260dea54a7db5ff0545843fac01.16":{"guid":"81dea260dea54a7db5ff0545843fac01.16","lat":42.393867,"lng":-71.081007,"name":"Baxter Park"},"b80631b9eef64296b028d90bc6e4f086.16":{"guid":"b80631b9eef64296b028d90bc6e4f086.16","lat":42.394274,"lng":-71.084061,"name":"Christian Assembly"},"06f134c7735a46258e21144c47047e2c.16":{"guid":"06f134c7735a46258e21144c47047e2c.16","lat":42.393128,"lng":-71.080782,"name":"Draw 7 Park"},"40136b2c0e854581acbcd66ac1663d5b.16":{"guid":"40136b2c0e854581acbcd66ac1663d5b.16","lat":42.393139,"lng":-71.07881,"name":"Rails Columns"},"7045ae5fc97348b282a3ecc224d4f36a.16":{"guid":"7045ae5fc97348b282a3ecc224d4f36a.16","lat":42.394752,"lng":-71.083808,"name":"Templo Dos Milagres"},"e0640d1ff6b449fa91ae900c6095d3da.16":{"guid":"e0640d1ff6b449fa91ae900c6095d3da.16","lat":42.393775,"lng":-71.079173,"name":"Beehives Art Sculpture"},"3919a76044c24be785706acf9b8b69ef.16":{"guid":"3919a76044c24be785706acf9b8b69ef.16","lat":42.394339,"lng":-71.078651,"name":"Dog TV Test Pattern"},"16ea2386da24439eb0578bcb659297d5.16":{"guid":"16ea2386da24439eb0578bcb659297d5.16","lat":42.392547,"lng":-71.083269,"name":"Cog Assembly Window"},"4ef169102a9b4cccbb19afba7fb3b00f.16":{"guid":"4ef169102a9b4cccbb19afba7fb3b00f.16","lat":42.392728,"lng":-71.077308,"name":"Ford Assembly Plant"},"d0ca374a05264ae59386778b80fe2b28.16":{"guid":"d0ca374a05264ae59386778b80fe2b28.16","lat":42.392768,"lng":-71.087425,"name":"Joseph Blumsack Memorial Field"},"952992750f58492796f31deb44caa740.16":{"guid":"952992750f58492796f31deb44caa740.16","lat":42.392791,"lng":-71.087833,"name":"Igreja Quadrangular"},"2f51429bab2449e5aeb08fb797253c7a.16":{"guid":"2f51429bab2449e5aeb08fb797253c7a.16","lat":42.385583,"lng":-71.099663,"name":"Icovitti Square"},"57b9bb5e364e4b7db2414d4eb070bb3b.16":{"guid":"57b9bb5e364e4b7db2414d4eb070bb3b.16","lat":42.395568,"lng":-71.080275,"name":"Chain"},"8787ecba1d634da69b23326e270460b3.16":{"guid":"8787ecba1d634da69b23326e270460b3.16","lat":42.389893,"lng":-71.120755,"name":"Sgt. Daniel J. Cronin Square"},"7e3f6a24ad8a463188ba62b438c22d76.16":{"guid":"7e3f6a24ad8a463188ba62b438c22d76.16","lat":42.385723,"lng":-71.102401,"name":"Avon Street Community Garden "},"b120d65616ef438c949a8327bc0efdd2.16":{"guid":"b120d65616ef438c949a8327bc0efdd2.16","lat":42.39798,"lng":-71.076892,"name":"Buda"},"c0fa88d1f1334de484a52b0027c7dafa.16":{"guid":"c0fa88d1f1334de484a52b0027c7dafa.16","lat":42.382733,"lng":-71.109221,"name":"Founders Memorial Skating Rink"},"bbda750b1cd14aa28adeb24295a0384f.16":{"guid":"bbda750b1cd14aa28adeb24295a0384f.16","lat":42.378453,"lng":-71.098371,"name":"Eternal Fall"},"057197500b8b4750841b0c0c602c7146.16":{"guid":"057197500b8b4750841b0c0c602c7146.16","lat":42.377619,"lng":-71.101079,"name":"Lincoln Park Playground"},"e27ed4848a1c4afbb44ff942b2f329a4.16":{"guid":"e27ed4848a1c4afbb44ff942b2f329a4.16","lat":42.377753,"lng":-71.100034,"name":"Lincoln Parkway Circle Mary"},"b85186c0435a4c53854f63f9ef72dc60.16":{"guid":"b85186c0435a4c53854f63f9ef72dc60.16","lat":42.378393,"lng":-71.100677,"name":"Brimer Memorial Bench"},"a8ec7d104aaa4dfc8428e4175b2c20a6.16":{"guid":"a8ec7d104aaa4dfc8428e4175b2c20a6.16","lat":42.383104,"lng":-71.107364,"name":"Conway North Athletic Field"},"9c2c58af320841a1bdaa4d7c213ef9b4.16":{"guid":"9c2c58af320841a1bdaa4d7c213ef9b4.16","lat":42.383353,"lng":-71.10891,"name":"Conway Park Basketball Courts"},"b7f032b5638e49b4abaf80f20af5df51.16":{"guid":"b7f032b5638e49b4abaf80f20af5df51.16","lat":42.381939,"lng":-71.106257,"name":"Aeronaut Brewing Mural"},"0e53b214569648299827aad4fd46f3e9.16":{"guid":"0e53b214569648299827aad4fd46f3e9.16","lat":42.395801,"lng":-71.11813,"name":"Bikeway Path Art"},"c161a3dd881d40f8b7bf9f9931bd88c3.16":{"guid":"c161a3dd881d40f8b7bf9f9931bd88c3.16","lat":42.396609,"lng":-71.12155,"name":"Casabianca on Brick"},"85fde4ab39af4a26aeec0274fe410626.12":{"guid":"85fde4ab39af4a26aeec0274fe410626.12","lat":42.396002,"lng":-71.121397,"name":"Mt Auburn Associates"},"8fbf40b99867413aa1bb1b077e0235c6.16":{"guid":"8fbf40b99867413aa1bb1b077e0235c6.16","lat":42.39566,"lng":-71.123575,"name":"Sacco's Bowl Haven"},"fa2b6e1737374056b8f66767b1fd10f4.16":{"guid":"fa2b6e1737374056b8f66767b1fd10f4.16","lat":42.394831,"lng":-71.118598,"name":"Bean Memorial Square"},"b27fe5ebf3764627b4bc5d6fd960f423.16":{"guid":"b27fe5ebf3764627b4bc5d6fd960f423.16","lat":42.395236,"lng":-71.127571,"name":"Cambridge Greenhouse"},"9e254701374c4df385e4ac492515330d.16":{"guid":"9e254701374c4df385e4ac492515330d.16","lat":42.395287,"lng":-71.116147,"name":"Historic Railroad Path 1870- Now Community Bike Path"},"f045e79ef98a4abea05deb40943ffede.16":{"guid":"f045e79ef98a4abea05deb40943ffede.16","lat":42.388267,"lng":-71.103182,"name":"Highland Kitchen"},"d788d827b4af43719b2c8c47f74bfc42.16":{"guid":"d788d827b4af43719b2c8c47f74bfc42.16","lat":42.389866,"lng":-71.102309,"name":"Reddin Memorial Square"},"91e935ed6323499ab5e64e4b535013e9.16":{"guid":"91e935ed6323499ab5e64e4b535013e9.16","lat":42.391848,"lng":-71.088507,"name":"Foss Park soccer field"},"5dd8df435cff4d3eb239877cfb39e773.16":{"guid":"5dd8df435cff4d3eb239877cfb39e773.16","lat":42.392302,"lng":-71.086704,"name":"Foss Park Tennis Courts"},"da1dfcd93b4343638cef7956fa854b07.16":{"guid":"da1dfcd93b4343638cef7956fa854b07.16","lat":42.392842,"lng":-71.086271,"name":"Foss Park Basketball court"},"3fd6b714b9ff4a70aaa5373311c951ea.16":{"guid":"3fd6b714b9ff4a70aaa5373311c951ea.16","lat":42.390466,"lng":-71.08829,"name":"CPL John J Murphy Jr Playground"},"68fe0c223d2e45cb8bbe348746c2ea28.16":{"guid":"68fe0c223d2e45cb8bbe348746c2ea28.16","lat":42.380806,"lng":-71.105776,"name":"27 Village St. Mural"},"c36b5a6fab0c4f8a97e2d9101e245ac0.16":{"guid":"c36b5a6fab0c4f8a97e2d9101e245ac0.16","lat":42.380547,"lng":-71.10945,"name":"American Academy of Arts and Sciences"},"84a990e2c64543e5b7d578032fd3fbb8.16":{"guid":"84a990e2c64543e5b7d578032fd3fbb8.16","lat":42.380885,"lng":-71.104419,"name":"Emblem"},"6e10579b833e4c70b94feae192ea85e8.16":{"guid":"6e10579b833e4c70b94feae192ea85e8.16","lat":42.380275,"lng":-71.109024,"name":"Nobel Laureate James D. Watson"},"403d19aaf0ce4f2ba4f27bff6eadb67f.16":{"guid":"403d19aaf0ce4f2ba4f27bff6eadb67f.16","lat":42.379869,"lng":-71.106009,"name":"Palmacci Park"},"24b7995b0fb5477cac71da124aa89144.16":{"guid":"24b7995b0fb5477cac71da124aa89144.16","lat":42.383498,"lng":-71.108116,"name":"PB's BFF"},"57e1cb9998a14ddfbf4c9cad58ecd3c7.16":{"guid":"57e1cb9998a14ddfbf4c9cad58ecd3c7.16","lat":42.37927,"lng":-71.103651,"name":"Perry Park Playground Sculpture"},"220da82f3d3a4810b3c7fd9a73d19ba7.16":{"guid":"220da82f3d3a4810b3c7fd9a73d19ba7.16","lat":42.381803,"lng":-71.109467,"name":"Reginald Matheson Sq"},"f1476c6f19d343678c61b2132d975c72.16":{"guid":"f1476c6f19d343678c61b2132d975c72.16","lat":42.379751,"lng":-71.100967,"name":"Washington Street Art Center"},"75d28c35365d4770a6e3f165b007ef94.16":{"guid":"75d28c35365d4770a6e3f165b007ef94.16","lat":42.394469,"lng":-71.11394,"name":"Lexington Park Mural"},"a36f705a8bf140328d68333f6e71d9ad.16":{"guid":"a36f705a8bf140328d68333f6e71d9ad.16","lat":42.397142,"lng":-71.088613,"name":"Grimmons Park"},"1cc0689fd10345e99e97e445ca3c81df.16":{"guid":"1cc0689fd10345e99e97e445ca3c81df.16","lat":42.397402,"lng":-71.088185,"name":"Grimmons Park Basketball Court"},"222edde05e594ff2b7b206fdc6207915.16":{"guid":"222edde05e594ff2b7b206fdc6207915.16","lat":42.392362,"lng":-71.078568,"name":"Ornate Metalwork"},"6673e3352903460dbaa4273231ebe659.16":{"guid":"6673e3352903460dbaa4273231ebe659.16","lat":42.391407,"lng":-71.077741,"name":"Rain Gardens"},"58ae246e9c2a4cbf96af349940d9e7d7.16":{"guid":"58ae246e9c2a4cbf96af349940d9e7d7.16","lat":42.393756,"lng":-71.119242,"name":"Dilboy Memorial Plaza"},"c41b1f0044fa455783ff5b32b4077433.16":{"guid":"c41b1f0044fa455783ff5b32b4077433.16","lat":42.393067,"lng":-71.120728,"name":"Little Free Library"},"58f103681bb248daade407d20a4cf905.16":{"guid":"58f103681bb248daade407d20a4cf905.16","lat":42.384772,"lng":-71.100226,"name":"Retired Turbine"},"b3b49b8ba07c4fa7b0249d27c286e7b0.16":{"guid":"b3b49b8ba07c4fa7b0249d27c286e7b0.16","lat":42.387584,"lng":-71.11884,"name":"Change Mural"},"2c0aae06257946e5968b75e3807e0188.16":{"guid":"2c0aae06257946e5968b75e3807e0188.16","lat":42.386704,"lng":-71.08093,"name":"Brothers Square"},"2b02886ed0a5484abc76802e7dad6d0b.16":{"guid":"2b02886ed0a5484abc76802e7dad6d0b.16","lat":42.387172,"lng":-71.082566,"name":"Franklin Building "},"5de32314bc4044dc948231b6b559df08.16":{"guid":"5de32314bc4044dc948231b6b559df08.16","lat":42.385037,"lng":-71.080768,"name":"Perkins Playground"},"bbf580ba081640db957789524b96e459.16":{"guid":"bbf580ba081640db957789524b96e459.16","lat":42.386319,"lng":-71.079861,"name":"Rooster At The Harvest"},"02379838ce084a3ba48b7a74b3c59624.16":{"guid":"02379838ce084a3ba48b7a74b3c59624.16","lat":42.386216,"lng":-71.082343,"name":"St Benedict Parish"},"bbbb72e329ae4e3488c2c04fe38646b4.16":{"guid":"bbbb72e329ae4e3488c2c04fe38646b4.16","lat":42.386278,"lng":-71.082808,"name":"St. Benedict's Rectory"},"012a107ac0804c269b5f87a9c9c370d2.16":{"guid":"012a107ac0804c269b5f87a9c9c370d2.16","lat":42.38506,"lng":-71.085967,"name":"Somerville Lion"},"01d93222558146a4a8778a9f6e2bec43.16":{"guid":"01d93222558146a4a8778a9f6e2bec43.16","lat":42.385066,"lng":-71.083738,"name":"The Animal Train"},"fb4fc7b9bf644416a19025724aa66f2c.16":{"guid":"fb4fc7b9bf644416a19025724aa66f2c.16","lat":42.38809,"lng":-71.0851,"name":"Bienvenidos a Monte Cristo"},"635efb6e5b204396b4454b2290cb11e1.16":{"guid":"635efb6e5b204396b4454b2290cb11e1.16","lat":42.387036,"lng":-71.087117,"name":"Mitrano Memorial Square"},"75bff896fe1c4943a1f91b25a78d3c16.16":{"guid":"75bff896fe1c4943a1f91b25a78d3c16.16","lat":42.389745,"lng":-71.085004,"name":"East Somerville Mural Project"},"2a2b60598c4b4586a0a859a9b179bac4.16":{"guid":"2a2b60598c4b4586a0a859a9b179bac4.16","lat":42.382636,"lng":-71.083038,"name":"Florence Playground"},"80aec8f905a147cf88e01a6d2cf34ae7.16":{"guid":"80aec8f905a147cf88e01a6d2cf34ae7.16","lat":42.383578,"lng":-71.080773,"name":"Norman Joseph Brennick Square"},"670fd302bb4f4f1890c3f7f0266238bb.16":{"guid":"670fd302bb4f4f1890c3f7f0266238bb.16","lat":42.381198,"lng":-71.087653,"name":"Statue of Mary"},"b3e9a26704414592a4ac9297b0bca7cd.16":{"guid":"b3e9a26704414592a4ac9297b0bca7cd.16","lat":42.384033,"lng":-71.082654,"name":"Symphony Park"},"37ab39c39e9e4de0abe1fe3116d5f913.16":{"guid":"37ab39c39e9e4de0abe1fe3116d5f913.16","lat":42.383314,"lng":-71.087136,"name":"Glen Park"},"7c547604f47b4b3897fc237da0da9270.16":{"guid":"7c547604f47b4b3897fc237da0da9270.16","lat":42.383248,"lng":-71.099424,"name":"David G. James Square"},"cb829fd0a8b641c48451f60f25d448fd.16":{"guid":"cb829fd0a8b641c48451f60f25d448fd.16","lat":42.39706,"lng":-71.107008,"name":"Trum Field Score Board"},"d1be65debccb48b78f0d8d9fd17714cb.16":{"guid":"d1be65debccb48b78f0d8d9fd17714cb.16","lat":42.386483,"lng":-71.078479,"name":"East Somerville Mural"},"16e28722b9164f87b53e9030dce18f17.16":{"guid":"16e28722b9164f87b53e9030dce18f17.16","lat":42.380398,"lng":-71.081889,"name":"Maggie's Place"},"aa93d2f41b224b618c80823873af405e.16":{"guid":"aa93d2f41b224b618c80823873af405e.16","lat":42.380822,"lng":-71.080946,"name":"Somerville City Club"},"6072014c67ff41a4aa2be6d4c4168354.16":{"guid":"6072014c67ff41a4aa2be6d4c4168354.16","lat":42.39907,"lng":-71.119378,"name":"First Church Somerville"},"3803f5ee31ec4ac9a7bbf643401e1d4c.16":{"guid":"3803f5ee31ec4ac9a7bbf643401e1d4c.16","lat":42.399087,"lng":-71.119957,"name":"Unity Church Somerville"},"cab134238a1d4b908a46ef9cb6b92f60.16":{"guid":"cab134238a1d4b908a46ef9cb6b92f60.16","lat":42.390297,"lng":-71.098485,"name":"Pero Memorial Square"},"5cc1b250e55e4d2f8fbb44fe96e93f94.16":{"guid":"5cc1b250e55e4d2f8fbb44fe96e93f94.16","lat":42.386945,"lng":-71.077385,"name":"Assembly Park"},"8cdccd9d02e14469b4a908245353dd84.16":{"guid":"8cdccd9d02e14469b4a908245353dd84.16","lat":42.398792,"lng":-71.117105,"name":"Cat Librarian Book House"},"9e3e9fc50a0146528707a32637bfb357.16":{"guid":"9e3e9fc50a0146528707a32637bfb357.16","lat":42.392794,"lng":-71.106232,"name":"Somerville Community Path Map"},"d102248096a34d3a91bc4576016ae39c.16":{"guid":"d102248096a34d3a91bc4576016ae39c.16","lat":42.38246,"lng":-71.10829,"name":"Conway South Athletic Field"},"c3a58596a18d47fd821dc39b6d572416.16":{"guid":"c3a58596a18d47fd821dc39b6d572416.16","lat":42.393972,"lng":-71.110744,"name":"Elly the Elephant"},"893733d9e1244cf987808903c7609c04.16":{"guid":"893733d9e1244cf987808903c7609c04.16","lat":42.377719,"lng":-71.093166,"name":"Allen Street Garden and Pocket Park"},"098dc6eb17a14840bb4ac038eb2248a5.16":{"guid":"098dc6eb17a14840bb4ac038eb2248a5.16","lat":42.586417,"lng":-71.288033,"name":"Kohlrausch Park "},"c77a38b40ed240668d0278ac5e65e8ce.16":{"guid":"c77a38b40ed240668d0278ac5e65e8ce.16","lat":42.394778,"lng":-71.113861,"name":"Martin F. Shaughnessy Memorial"},"c9e3b0fd34114a27af1ec14f4a88534b.16":{"guid":"c9e3b0fd34114a27af1ec14f4a88534b.16","lat":42.378876,"lng":-71.104187,"name":"Daniel J. Ryan Square"},"a1df3a9a1f544751be845ca739b0edc1.16":{"guid":"a1df3a9a1f544751be845ca739b0edc1.16","lat":42.378776,"lng":-71.100255,"name":"\"Parker Pals\" Sign"},"31fb4cb5dafa4ac0ad62da55b3a3d350.16":{"guid":"31fb4cb5dafa4ac0ad62da55b3a3d350.16","lat":42.391126,"lng":-71.1039,"name":"Historic Railroad Marker"},"30483deeb905425ca27319de2b08ccd8.16":{"guid":"30483deeb905425ca27319de2b08ccd8.16","lat":42.39357,"lng":-71.108975,"name":"Low Bar"},"f06510073b1d49eb9517dc865706da2e.16":{"guid":"f06510073b1d49eb9517dc865706da2e.16","lat":42.392088,"lng":-71.10126,"name":"DiMartino Memorial Square"},"0bb0c9611cf94355ae0ea838ddb4b141.16":{"guid":"0bb0c9611cf94355ae0ea838ddb4b141.16","lat":42.390487,"lng":-71.104713,"name":"Daly Memorial Square"},"f42bb257acd1487eacf00d0fcd393614.16":{"guid":"f42bb257acd1487eacf00d0fcd393614.16","lat":42.389003,"lng":-71.102941,"name":"Neighborway Trail Marker"},"bae14edecdea413dadac2a7bfa994a44.16":{"guid":"bae14edecdea413dadac2a7bfa994a44.16","lat":42.389692,"lng":-71.102592,"name":"Quinn Memorial Square"},"ebc303af5aa34fa398852aea21280b20.16":{"guid":"ebc303af5aa34fa398852aea21280b20.16","lat":42.39394,"lng":-71.126003,"name":"Sculpture Garden at Pemberton Farms"},"4732f9cca4ec4f41b6020e051c56599a.16":{"guid":"4732f9cca4ec4f41b6020e051c56599a.16","lat":42.39438,"lng":-71.127196,"name":"St. John the Evangelist Church."},"9feb47f48d8049fab51e66bb79c7f42a.16":{"guid":"9feb47f48d8049fab51e66bb79c7f42a.16","lat":42.387938,"lng":-71.094782,"name":"The Telephone Company Building"},"be307fdd4b494437b7f87b52b11751bc.16":{"guid":"be307fdd4b494437b7f87b52b11751bc.16","lat":42.391315,"lng":-71.09832,"name":"Sacred Heart Statue"},"bdc610987cff48619044d479da4a83b9.16":{"guid":"bdc610987cff48619044d479da4a83b9.16","lat":42.391997,"lng":-71.09747,"name":"Winter Hill Field"},"5bbb940e7e8f485e99bc428407d7eac1.16":{"guid":"5bbb940e7e8f485e99bc428407d7eac1.16","lat":42.392655,"lng":-71.078722,"name":"iron gate"},"5113d5192abb450bb6c4cb8dd31c2aa9.16":{"guid":"5113d5192abb450bb6c4cb8dd31c2aa9.16","lat":42.39177,"lng":-71.092568,"name":"En garde!"},"bf49d543fed64bf5898098fbd354ad05.16":{"guid":"bf49d543fed64bf5898098fbd354ad05.16","lat":42.397417,"lng":-71.1229,"name":"Sunset Dance Mural"},"3715a53c8da04b1facd9255291b1fe8c.16":{"guid":"3715a53c8da04b1facd9255291b1fe8c.16","lat":42.398258,"lng":-71.123806,"name":"The Fantastic Local Orleans"},"9046648336574de5ba52862c36341336.16":{"guid":"9046648336574de5ba52862c36341336.16","lat":42.396254,"lng":-71.125594,"name":"Nellie Taylor House"},"af7f0a8d52004e899da1f6bdfd12fc91.16":{"guid":"af7f0a8d52004e899da1f6bdfd12fc91.16","lat":42.389579,"lng":-71.099083,"name":"Murphy Memorial Square"},"18f8532c9a6644ac9741998ed0da0630.16":{"guid":"18f8532c9a6644ac9741998ed0da0630.16","lat":42.377886,"lng":-71.094847,"name":"Vietnam Veterans Memorial Bridge"},"cfbdc37e498848bfb83087a7b7165a10.16":{"guid":"cfbdc37e498848bfb83087a7b7165a10.16","lat":42.372844,"lng":-71.093178,"name":"Joseph Versackas Sr. Square"},"b7b4d3d8cc584a60b0b9174862c87fc9.16":{"guid":"b7b4d3d8cc584a60b0b9174862c87fc9.16","lat":42.366687,"lng":-71.08827,"name":"Bob Jones Square"},"2a6b4dc625f942aa9cb05cee8e090a97.16":{"guid":"2a6b4dc625f942aa9cb05cee8e090a97.16","lat":42.364171,"lng":-71.094708,"name":"Newtowne Court Mural  "},"57b4ca6098404adc83cc1c4f06268b28.16":{"guid":"57b4ca6098404adc83cc1c4f06268b28.16","lat":42.362955,"lng":-71.094743,"name":"In Commemoration of Dr Edwin Herbert Land"},"aa6f19b6e73d47fcb815c938a44f8784.16":{"guid":"aa6f19b6e73d47fcb815c938a44f8784.16","lat":42.362614,"lng":-71.091227,"name":"McGovern Institute for Brain Research"},"840f52b884b34665877840768af2277b.16":{"guid":"840f52b884b34665877840768af2277b.16","lat":42.385833,"lng":-71.093859,"name":"Push to Walk"},"16f1e763cbf840099881d0ceeefe6290.16":{"guid":"16f1e763cbf840099881d0ceeefe6290.16","lat":42.368751,"lng":-71.094913,"name":"Lord Hobo"},"811ef1f4920541e38550dd9bc3fa8529.16":{"guid":"811ef1f4920541e38550dd9bc3fa8529.16","lat":42.362351,"lng":-71.089422,"name":"Through Layers and Leaves"},"6af40cf4438e4d668e33c2ce3cb5e1a6.16":{"guid":"6af40cf4438e4d668e33c2ce3cb5e1a6.16","lat":42.36552,"lng":-71.090845,"name":"Spire at One Kendall Square"},"31011cba4acd451a965cf69d4ea19d0d.16":{"guid":"31011cba4acd451a965cf69d4ea19d0d.16","lat":42.374613,"lng":-71.096853,"name":"The Shooter"},"82d92d9b8bdd4c4ca4900ff9c96986f1.16":{"guid":"82d92d9b8bdd4c4ca4900ff9c96986f1.16","lat":42.373294,"lng":-71.09803,"name":"All Star Pizza Bar"},"1623bfca35ba43c4afa7c18912c6c329.16":{"guid":"1623bfca35ba43c4afa7c18912c6c329.16","lat":42.373537,"lng":-71.097652,"name":"Ethnic Harmony "},"2d167505bcd4491694e4d3cd702aa339.16":{"guid":"2d167505bcd4491694e4d3cd702aa339.16","lat":42.37061,"lng":-71.081515,"name":"Silva Park"},"15c5ba33c0064ae3b10c4f1f39e14b16.16":{"guid":"15c5ba33c0064ae3b10c4f1f39e14b16.16","lat":42.372409,"lng":-71.091554,"name":"The Arc of History Mural"},"d1b32591e74a4aab824059b748a6729c.16":{"guid":"d1b32591e74a4aab824059b748a6729c.16","lat":42.370247,"lng":-71.079636,"name":"Courthouse Courtyard Flower Sculpture"},"6200012fcbd942bca13de8faf597a175.16":{"guid":"6200012fcbd942bca13de8faf597a175.16","lat":42.369848,"lng":-71.082386,"name":"James Green House"},"3ccdcbda28bb4a848c26bce6e5c89cd5.16":{"guid":"3ccdcbda28bb4a848c26bce6e5c89cd5.16","lat":42.371814,"lng":-71.077846,"name":"New England Glass Company"},"0d25b8c7485b4fac8fd8338a25d5b2dc.16":{"guid":"0d25b8c7485b4fac8fd8338a25d5b2dc.16","lat":42.371311,"lng":-71.087105,"name":"Patsy \"Check\" Riccardi Square"},"c2af9104107b4598979316859a1a7a23.16":{"guid":"c2af9104107b4598979316859a1a7a23.16","lat":42.369568,"lng":-71.085376,"name":"Sheehan Square"},"84275f73f91e40b6ac069182bb9c31bb.16":{"guid":"84275f73f91e40b6ac069182bb9c31bb.16","lat":42.37051,"lng":-71.086564,"name":"Simmie Magliozzi Square"},"4c16dc5411fc42178ef73f473c5fc594.16":{"guid":"4c16dc5411fc42178ef73f473c5fc594.16","lat":42.370713,"lng":-71.082553,"name":"St Hedwig's Church"},"44b5be68bd3545c48a88c7a7ea0577dd.16":{"guid":"44b5be68bd3545c48a88c7a7ea0577dd.16","lat":42.369886,"lng":-71.077259,"name":"The Davenport"},"ab521d91343345c88324cfa88dccd642.16":{"guid":"ab521d91343345c88324cfa88dccd642.16","lat":42.370751,"lng":-71.078453,"name":"Thomas Pilleri Square"},"fe887e83f3d0404e922a860580d43424.16":{"guid":"fe887e83f3d0404e922a860580d43424.16","lat":42.370117,"lng":-71.083397,"name":"Vincent A. Pacceli Square"},"c86b0e1b7d0843d9a14d1e738927be8c.16":{"guid":"c86b0e1b7d0843d9a14d1e738927be8c.16","lat":42.370348,"lng":-71.085957,"name":"Walter W. Kolosha Square"},"b06d4feffd9b43eda0a2787b97dbad0c.16":{"guid":"b06d4feffd9b43eda0a2787b97dbad0c.16","lat":42.371068,"lng":-71.080808,"name":"East Cambridge Savings Bank Building"},"12256447a89e4e818cec7da509084493.16":{"guid":"12256447a89e4e818cec7da509084493.16","lat":42.370953,"lng":-71.074427,"name":"Earhart Street Park"},"19c4f07975e54ad9bdec54ad7417425a.16":{"guid":"19c4f07975e54ad9bdec54ad7417425a.16","lat":42.370662,"lng":-71.073546,"name":"Avalon Tot Lot"},"dd585139cccd46e4b309b33fc3749e57.16":{"guid":"dd585139cccd46e4b309b33fc3749e57.16","lat":42.370685,"lng":-71.076611,"name":"Sun Mural"},"b4f1dc1b90a642c3bbbc0d4767623704.16":{"guid":"b4f1dc1b90a642c3bbbc0d4767623704.16","lat":42.370438,"lng":-71.078846,"name":"Centanni Way"},"d7c29d312d3d4d639e653622faa6c70d.16":{"guid":"d7c29d312d3d4d639e653622faa6c70d.16","lat":42.370899,"lng":-71.077384,"name":"Lechmere Station - South Side"},"e05b7447bfa341dd81ec2a2d2a404150.16":{"guid":"e05b7447bfa341dd81ec2a2d2a404150.16","lat":42.36664,"lng":-71.068495,"name":"Esplanade Via Science Park"},"2a7c9cf9c63649c1bb1c4e8427715d58.16":{"guid":"2a7c9cf9c63649c1bb1c4e8427715d58.16","lat":42.366737,"lng":-71.067995,"name":"Science Park Station"},"bdec6e0120874ced9cbe95f96e8c3572.12":{"guid":"bdec6e0120874ced9cbe95f96e8c3572.12","lat":42.36723,"lng":-71.069841,"name":"T-Rex at Museum of Science"},"7d2669cd0bf1494bb80d0d823368d0a7.16":{"guid":"7d2669cd0bf1494bb80d0d823368d0a7.16","lat":42.365513,"lng":-71.06786,"name":"The Clubs at Charles River Park"},"a949b390254c4baeb402c3955005f8dc.16":{"guid":"a949b390254c4baeb402c3955005f8dc.16","lat":42.365506,"lng":-71.06885,"name":"Thoreau Path End"},"bc61a47b13674bcaa5eaf88034e116c6.16":{"guid":"bc61a47b13674bcaa5eaf88034e116c6.16","lat":42.366001,"lng":-71.069662,"name":"Charlesbank Playground"},"6ee1b5bba8a34865a5c6603dd3ab77aa.16":{"guid":"6ee1b5bba8a34865a5c6603dd3ab77aa.16","lat":42.365401,"lng":-71.069726,"name":"Alfond Spray Deck Park "},"fc673cdce5fa4f5d89b76e103d9e4a5a.16":{"guid":"fc673cdce5fa4f5d89b76e103d9e4a5a.16","lat":42.364734,"lng":-71.071467,"name":"Teddy Ebersol's Red Sox Fields"},"26fe584ad4ca4bbb9c02c7d647e75602.16":{"guid":"26fe584ad4ca4bbb9c02c7d647e75602.16","lat":42.364857,"lng":-71.070925,"name":"Lock Gate Houses"},"f27bd46c62e649d285f8bbeab3710df8.16":{"guid":"f27bd46c62e649d285f8bbeab3710df8.16","lat":42.367849,"lng":-71.072324,"name":"Gilliland Observatory"},"55a966c09b24487fad5c3adb4a8619de.16":{"guid":"55a966c09b24487fad5c3adb4a8619de.16","lat":42.366789,"lng":-71.070191,"name":"Charles Hayden Planetarium"},"847b90c6b8de49319f0a3aa4b785d32f.16":{"guid":"847b90c6b8de49319f0a3aa4b785d32f.16","lat":42.367658,"lng":-71.071013,"name":"MOS Excogitation"},"63b0569b2ffd4c8d982899e85935a683.11":{"guid":"63b0569b2ffd4c8d982899e85935a683.11","lat":42.368135,"lng":-71.071691,"name":"Museum of Science"},"f1b4505fe247464e90287b884d6875f2.16":{"guid":"f1b4505fe247464e90287b884d6875f2.16","lat":42.369313,"lng":-71.080396,"name":"Trial Court of the  Commonwealth"},"54d87a2ec97f4ca0b34a83a520f6c5a8.16":{"guid":"54d87a2ec97f4ca0b34a83a520f6c5a8.16","lat":42.36966,"lng":-71.078979,"name":"East Cambridge Multicultural Arts Center "},"d8dc1dc8916d403dbfc68308cc16d68c.16":{"guid":"d8dc1dc8916d403dbfc68308cc16d68c.16","lat":42.365962,"lng":-71.077283,"name":"All Weather Seating"},"6471bee4eb1748fdbb13aa41df13e534.16":{"guid":"6471bee4eb1748fdbb13aa41df13e534.16","lat":42.366055,"lng":-71.07671,"name":"Charles Park"},"469933db45ae433491765610f98bbbee.16":{"guid":"469933db45ae433491765610f98bbbee.16","lat":42.365654,"lng":-71.0764,"name":"Sky Harpoon"},"833edb4e287d4ac4a49f5a931a340e1b.16":{"guid":"833edb4e287d4ac4a49f5a931a340e1b.16","lat":42.365166,"lng":-71.07669,"name":"3 Arches"},"15545aff38c548d098f1d1281b58dec1.16":{"guid":"15545aff38c548d098f1d1281b58dec1.16","lat":42.366768,"lng":-71.074209,"name":"Charlesgate Yacht Club"},"d1f9e9c26408492d8b0b1309c6069c0b.16":{"guid":"d1f9e9c26408492d8b0b1309c6069c0b.16","lat":42.366033,"lng":-71.075413,"name":"Egret Statue "},"672d9faed91d4eb897a5826c18581ed5.16":{"guid":"672d9faed91d4eb897a5826c18581ed5.16","lat":42.366454,"lng":-71.076639,"name":"Charles Park Playground"},"49c76ae4e5964fe28c5351c4d180d0f7.16":{"guid":"49c76ae4e5964fe28c5351c4d180d0f7.16","lat":42.367138,"lng":-71.07648,"name":"Cambridgeside Galleria"},"b42ddf3638ca4d2bbc4749f1a33a43bb.16":{"guid":"b42ddf3638ca4d2bbc4749f1a33a43bb.16","lat":42.367582,"lng":-71.076037,"name":"Mars"},"65bf6280c7694a8ca9ad3eda369440e7.16":{"guid":"65bf6280c7694a8ca9ad3eda369440e7.16","lat":42.367894,"lng":-71.075278,"name":"Cambridge Marlowe Sculpture "},"e238c310473f42af8057b85fe782e987.16":{"guid":"e238c310473f42af8057b85fe782e987.16","lat":42.368098,"lng":-71.074766,"name":"Lechmere Canal Park Entrance"},"98fe74279a864a1dbc4688a9973061b1.16":{"guid":"98fe74279a864a1dbc4688a9973061b1.16","lat":42.368005,"lng":-71.077701,"name":"Mural at 1st and Hurley"},"6e13d77160b64254b5fa239277502c26.16":{"guid":"6e13d77160b64254b5fa239277502c26.16","lat":42.3688,"lng":-71.077472,"name":"Beacon of Color"},"6484fd16d1cc40ac8e4daada69f9e74e.16":{"guid":"6484fd16d1cc40ac8e4daada69f9e74e.16","lat":42.368799,"lng":-71.076243,"name":"Historic Location of Lechmere Sales"},"607ac15315bc41b5adfebc6c4ab5e097.16":{"guid":"607ac15315bc41b5adfebc6c4ab5e097.16","lat":42.368898,"lng":-71.078943,"name":"Paul Frisoli Art"},"0e0705a8ea9449b28491ebbfc2eec5c5.16":{"guid":"0e0705a8ea9449b28491ebbfc2eec5c5.16","lat":42.369391,"lng":-71.075527,"name":"Lechmere Canal Park Gazebo "},"6edf393cf11c4de2b6799dc4fe428779.16":{"guid":"6edf393cf11c4de2b6799dc4fe428779.16","lat":42.362074,"lng":-71.080353,"name":"Spectrum Analysis"},"d1b9dfe331194db58b28e4689244befb.16":{"guid":"d1b9dfe331194db58b28e4689244befb.16","lat":42.368809,"lng":-71.07964,"name":"Edward Lopez Square"},"ed215ec1e13b4e2981215b2d65515531.16":{"guid":"ed215ec1e13b4e2981215b2d65515531.16","lat":42.368285,"lng":-71.079914,"name":"Bill Tracy Memorial Square "},"a81f38da2082453796ee5ea6d0efa6a8.16":{"guid":"a81f38da2082453796ee5ea6d0efa6a8.16","lat":42.367726,"lng":-71.08096,"name":"William Vera Square"},"a5b6168a3e2e4fb383530449e2539465.16":{"guid":"a5b6168a3e2e4fb383530449e2539465.16","lat":42.368081,"lng":-71.083848,"name":"Vendetti Square"},"0991a4c084424fc1bbd5c990ad81d76c.16":{"guid":"0991a4c084424fc1bbd5c990ad81d76c.16","lat":42.369579,"lng":-71.074664,"name":"Thomas Graves' Landing"},"04547b69cf954f3d9f2805fea291a17a.11":{"guid":"04547b69cf954f3d9f2805fea291a17a.11","lat":42.369184,"lng":-71.077117,"name":"Lechmere Canal"},"46270232d87f456cb5f53b51bd4ff1d0.16":{"guid":"46270232d87f456cb5f53b51bd4ff1d0.16","lat":42.371964,"lng":-71.07184,"name":"Brian P. Murphy Grand Staircase"},"872304b12a2947be961c21ed47fb2edb.16":{"guid":"872304b12a2947be961c21ed47fb2edb.16","lat":42.369599,"lng":-71.072372,"name":"Viaduct Courts at North Point Park"},"6a434aa75483496abeafb8b91fa84c80.16":{"guid":"6a434aa75483496abeafb8b91fa84c80.16","lat":42.371383,"lng":-71.073238,"name":"Pedestrian Bridge A at CX Common"},"18098a8da5a44654a805df63820f7af1.16":{"guid":"18098a8da5a44654a805df63820f7af1.16","lat":42.370499,"lng":-71.070481,"name":"Hult House Field"},"00e9d1990cbe4716a573f28c0eb86437.16":{"guid":"00e9d1990cbe4716a573f28c0eb86437.16","lat":42.3692,"lng":-71.072116,"name":"Cambridge College School of Management"},"19ba52231db04f79ac1d53ca6f6f3aac.16":{"guid":"19ba52231db04f79ac1d53ca6f6f3aac.16","lat":42.370693,"lng":-71.083248,"name":"Edward Sniegiecki Square"},"d4adcc5c3bbf44518e3d3858e64e65a1.16":{"guid":"d4adcc5c3bbf44518e3d3858e64e65a1.16","lat":42.368523,"lng":-71.082987,"name":"James J. Hurley Park"},"073b9e0b959643789a63c4ffd804c4cb.16":{"guid":"073b9e0b959643789a63c4ffd804c4cb.16","lat":42.369633,"lng":-71.079529,"name":"Bulfinch Square"},"1fdaf0436f384ed882254e55984561fb.16":{"guid":"1fdaf0436f384ed882254e55984561fb.16","lat":42.366945,"lng":-71.080176,"name":"American twine factory building"},"bac48f796142477198a7aff1dbfc09b5.16":{"guid":"bac48f796142477198a7aff1dbfc09b5.16","lat":42.369046,"lng":-71.080247,"name":"Mary Poillucci Square"},"38fba3b9a1be463e849dd9db2cc85a9d.16":{"guid":"38fba3b9a1be463e849dd9db2cc85a9d.16","lat":42.369898,"lng":-71.081713,"name":"Malewski Square"},"122992a299694924b051ca6f74c35538.16":{"guid":"122992a299694924b051ca6f74c35538.16","lat":42.3702,"lng":-71.074332,"name":"Pergola at Avalon North Point"},"4eb1e0883bcb4364a3f0fd8c35828f8c.16":{"guid":"4eb1e0883bcb4364a3f0fd8c35828f8c.16","lat":42.369121,"lng":-71.082071,"name":"Danny W Cappucci Square"},"91945464bbc44c459bfa628b8b5cce1d.16":{"guid":"91945464bbc44c459bfa628b8b5cce1d.16","lat":42.371591,"lng":-71.084712,"name":"Joseph P. Dilworth Square"},"f2dd9c4bee2a47f29630953e341771eb.16":{"guid":"f2dd9c4bee2a47f29630953e341771eb.16","lat":42.367039,"lng":-71.081562,"name":"Downstairs Cafe"},"a27182fd1ac24bba93d086ee04c36fc1.16":{"guid":"a27182fd1ac24bba93d086ee04c36fc1.16","lat":42.367646,"lng":-71.079947,"name":"Costa Lopez Taylor Park"},"299f91b3466d44d1a9211bfcaef54c4f.16":{"guid":"299f91b3466d44d1a9211bfcaef54c4f.16","lat":42.368947,"lng":-71.085566,"name":"William Morrill Playground"},"6feb7d9eb651446b85d5969e989a52ca.16":{"guid":"6feb7d9eb651446b85d5969e989a52ca.16","lat":42.367811,"lng":-71.081761,"name":"Big Tooth at Deprimio Dentist"},"0bcefcac9ed6464985254114a3858c1e.16":{"guid":"0bcefcac9ed6464985254114a3858c1e.16","lat":42.368225,"lng":-71.079238,"name":"James F. Carrol Square"},"be4d7441b134435d8ec88cc8947694cc.16":{"guid":"be4d7441b134435d8ec88cc8947694cc.16","lat":42.36935,"lng":-71.083711,"name":"George R. Cabral Square"},"606ed016d36d4cfa916bb40bab260985.16":{"guid":"606ed016d36d4cfa916bb40bab260985.16","lat":42.372859,"lng":-71.082725,"name":"Alphonse Carbone Square"},"2af91a4f61ec43f4bc695867a49c19bf.16":{"guid":"2af91a4f61ec43f4bc695867a49c19bf.16","lat":42.368804,"lng":-71.069304,"name":"Pedestrian Bridge A at North Point Park"},"b083b0f1d6594e9ba7845daa1e73563e.16":{"guid":"b083b0f1d6594e9ba7845daa1e73563e.16","lat":42.36499,"lng":-71.06633,"name":"Boston Synagogue Rear Entrance"},"461996f8fa93436fa9e5df5e84e26b23.16":{"guid":"461996f8fa93436fa9e5df5e84e26b23.16","lat":42.368707,"lng":-71.072401,"name":"Meng Jin Ghost Bike Memorial"},"3c865602deb94ae68f91349d53345cb6.16":{"guid":"3c865602deb94ae68f91349d53345cb6.16","lat":42.365881,"lng":-71.066061,"name":"Morris I Stern Memorial Square"},"02c23f1bbb654cea876a8254c0b1d09f.16":{"guid":"02c23f1bbb654cea876a8254c0b1d09f.16","lat":42.369139,"lng":-71.068325,"name":"Pedestrian Bridge C at North Point Park"},"8eb696e01dca45a0bc7992fe82d3f25a.16":{"guid":"8eb696e01dca45a0bc7992fe82d3f25a.16","lat":42.365515,"lng":-71.077826,"name":"Fountain Of Faces At River Court. "},"112e78c66c3b488eabab038c684f9a26.16":{"guid":"112e78c66c3b488eabab038c684f9a26.16","lat":42.366862,"lng":-71.079118,"name":"Rain Garden"},"aed51b6f87654709af2db142d58649b7.16":{"guid":"aed51b6f87654709af2db142d58649b7.16","lat":42.364895,"lng":-71.077721,"name":"Pugh Dedication Garden"},"2cff16d9bf48464eb62e9d5308741b43.12":{"guid":"2cff16d9bf48464eb62e9d5308741b43.12","lat":42.365816,"lng":-71.082542,"name":"Kendall Boiler and Tank Co. Hi"},"bfb40d8e723d495cb8cc12a6e8d91199.16":{"guid":"bfb40d8e723d495cb8cc12a6e8d91199.16","lat":42.365373,"lng":-71.082805,"name":"Little Library At Urban Agriculture Club Garden "},